$GPGGA,154500.00,4723.877813,N,00822.578372,E,1,23,0.4,544.7,M,48.0,M,,*66
$PGLOR,9,STA,154500.00,-0.020,0.000,-104,1,4,0,P,F,L,0,C,3,S,00100002,28,4,R,000833F4,TPEF,30,39702,LC,,,*78
$GPGSV,3,1,10,29,57,057,34,21,56,175,38,31,50,236,25,26,50,301,45*7B
$GPGSV,3,2,10,25,30,121,31,16,20,300,40,05,16,056,32,04,06,315,*7A
$GPGSV,3,3,10,09,00,345,,20,00,161,*77
$GLGSV,2,1,08,88,65,241,28,87,61,032,40,77,46,159,23,79,21,325,43*6D
$GLGSV,2,2,08,81,19,229,,71,08,040,37,70,06,354,28,86,02,043,*69
$BDGSV,2,1,07,229,76,246,32,230,45,058,34,213,29,043,32,226,24,314,41*61
$BDGSV,2,2,07,205,19,120,27,208,07,032,29,202,02,100,*62
$GAGSV,2,1,06,130,78,169,29,127,42,307,45,115,40,211,,136,28,048,35*65
$GAGSV,2,2,06,102,27,138,34,119,00,327,*6A
$GPGSA,A,3,05,16,21,25,26,29,31,,,,,,1.8,0.9,1.5*3D
$GNGSA,A,3,05,16,21,25,26,29,31,,,,,,1.8,0.9,1.5*23
$GNGSA,A,3,70,71,77,79,87,88,,,,,,,1.8,0.9,1.5*28
$QZGSA,A,3,,,,,,,,,,,,,1.8,0.9,1.5*2A
$IMGSA,A,3,,,,,,,,,,,,,1.8,0.9,1.5*25
$BDGSA,A,3,205,208,213,226,229,230,,,,,,,1.8,0.9,1.5*24
$GAGSA,A,3,102,127,130,136,,,,,,,,,1.8,0.9,1.5*26
$GPRMC,154500.00,A,4723.877813,N,00822.578372,E,000.0,,270320,,,A*75
$GPGGA,154501.00,4723.877813,N,00822.578372,E,1,23,0.4,544.7,M,48.0,M,,*67
$PGLOR,9,STA,154501.00,-0.020,0.000,-104,1,4,0,P,F,L,0,C,3,S,00100002,28,4,R,000833F4,TPEF,30,40702,LC,,,*77
$GPGSV,3,1,10,21,57,175,38,29,57,057,34,31,50,236,25,26,50,301,45*7A
$GPGSV,3,2,10,25,30,121,31,16,20,300,40,05,16,056,32,04,06,315,*7A
$GPGSV,3,3,10,09,00,345,,20,00,161,*77
$GLGSV,2,1,08,88,65,241,28,87,61,032,40,77,46,159,23,79,21,325,42*6C
$GLGSV,2,2,08,81,19,229,,71,08,040,37,70,06,354,28,86,02,043,*69
$BDGSV,2,1,07,229,76,246,32,230,45,058,34,213,29,043,32,226,24,314,41*61
$BDGSV,2,2,07,205,19,120,,208,07,032,28,202,02,100,*66
$GAGSV,2,1,06,130,78,169,29,127,42,307,45,115,40,211,,136,28,048,35*65
$GAGSV,2,2,06,102,27,138,34,119,00,327,*6A
$GPGSA,A,3,05,16,21,25,26,29,31,,,,,,1.8,0.9,1.5*3D
$GNGSA,A,3,05,16,21,25,26,29,31,,,,,,1.8,0.9,1.5*23
$GNGSA,A,3,70,71,77,79,87,88,,,,,,,1.8,0.9,1.5*28
$QZGSA,A,3,,,,,,,,,,,,,1.8,0.9,1.5*2A
$IMGSA,A,3,,,,,,,,,,,,,1.8,0.9,1.5*25
$BDGSA,A,3,208,213,226,229,230,,,,,,,,1.8,0.9,1.5*13
$GAGSA,A,3,102,127,130,136,,,,,,,,,1.8,0.9,1.5*26
$GPRMC,154501.00,A,4723.877813,N,00822.578372,E,000.0,,270320,,,A*74
$GPGGA,154502.00,4723.877813,N,00822.578372,E,1,22,0.4,544.7,M,48.0,M,,*65
$PGLOR,9,STA,154502.00,-0.020,0.000,-104,1,4,0,P,F,L,0,C,3,S,00100002,28,4,R,000833F4,TPEF,30,41702,LC,,,*75
$GPGSV,3,1,10,21,57,175,38,29,57,057,33,31,50,236,24,26,50,301,45*7C
$GPGSV,3,2,10,25,30,121,31,16,20,300,40,05,16,056,32,04,06,315,*7A
$GPGSV,3,3,10,09,00,345,,20,00,161,*77
$GLGSV,2,1,08,88,65,241,28,87,61,032,40,77,46,159,23,79,21,325,42*6C
$GLGSV,2,2,08,81,19,229,,71,08,040,37,70,06,354,28,86,02,043,*69
$BDGSV,2,1,07,229,76,246,32,230,45,058,34,213,29,043,31,226,24,314,41*62
$BDGSV,2,2,07,205,19,120,,208,07,032,27,202,02,100,*69
$GAGSV,2,1,06,130,78,169,29,127,42,307,45,115,40,211,,136,28,048,35*65
$GAGSV,2,2,06,102,27,138,34,119,00,327,*6A
$GPGSA,A,3,05,16,21,25,26,29,31,,,,,,2.0,1.1,1.6*3C
$GNGSA,A,3,05,16,21,25,26,29,31,,,,,,2.0,1.1,1.6*22
$GNGSA,A,3,70,71,77,79,87,88,,,,,,,2.0,1.1,1.6*29
$QZGSA,A,3,,,,,,,,,,,,,2.0,1.1,1.6*2B
$IMGSA,A,3,,,,,,,,,,,,,2.0,1.1,1.6*24
$BDGSA,A,3,208,213,226,229,230,,,,,,,,2.0,1.1,1.6*12
$GAGSA,A,3,102,127,130,136,,,,,,,,,2.0,1.1,1.6*27
$GPRMC,154502.00,A,4723.877813,N,00822.578372,E,000.0,,270320,,,A*77
$GPGGA,154503.00,4723.877813,N,00822.578372,E,1,24,0.4,544.7,M,48.0,M,,*62
$PGLOR,9,STA,154503.00,-0.020,0.000,-104,1,4,0,P,F,L,0,C,3,S,00100002,28,4,R,000833F4,TPEF,30,42702,LC,,,*77
$GPGSV,3,1,10,21,57,175,40,29,57,057,33,31,50,236,31,26,50,301,44*76
$GPGSV,3,2,10,25,30,121,38,16,20,300,40,05,16,056,31,04,06,315,*70
$GPGSV,3,3,10,09,00,345,,20,00,161,*77
$GLGSV,2,1,08,88,65,241,32,87,61,032,40,77,46,159,28,79,21,325,42*6C
$GLGSV,2,2,08,81,19,229,,71,08,040,37,70,06,354,28,86,02,043,*69
$BDGSV,2,1,07,229,76,246,34,230,45,058,34,213,29,043,31,226,24,314,40*65
$BDGSV,2,2,07,205,19,120,24,208,07,032,27,202,02,100,*6F
$GAGSV,2,1,06,130,78,169,33,127,42,307,45,115,40,211,22,136,28,048,35*6E
$GAGSV,2,2,06,102,27,138,35,119,00,327,*6B
$GPGSA,A,3,05,16,21,25,26,29,31,,,,,,2.1,1.1,1.7*3C
$GNGSA,A,3,05,16,21,25,26,29,31,,,,,,2.1,1.1,1.7*22
$GNGSA,A,3,70,71,77,79,87,88,,,,,,,2.1,1.1,1.7*29
$QZGSA,A,3,,,,,,,,,,,,,2.1,1.1,1.7*2B
$IMGSA,A,3,,,,,,,,,,,,,2.1,1.1,1.7*24
$BDGSA,A,3,205,208,213,226,229,230,,,,,,,2.1,1.1,1.7*25
$GAGSA,A,3,102,115,127,130,136,,,,,,,,2.1,1.1,1.7*12
$GPRMC,154503.00,A,4723.877813,N,00822.578372,E,000.0,,270320,,,A*76
$GPGGA,154504.00,4723.877813,N,00822.578372,E,1,23,0.4,544.7,M,48.0,M,,*62
$PGLOR,9,STA,154504.00,-0.020,0.000,-104,1,4,0,P,F,L,0,C,3,S,00100002,28,4,R,000833F4,TPEF,30,43702,LC,,,*71
$GPGSV,3,1,10,21,57,175,40,29,57,057,33,31,50,236,34,26,50,301,43*74
$GPGSV,3,2,10,25,30,121,41,16,20,300,39,05,16,056,31,04,06,315,*70
$GPGSV,3,3,10,09,00,345,,20,00,161,*77
$GLGSV,2,1,08,88,65,241,32,87,61,032,42,77,46,159,30,79,21,325,42*67
$GLGSV,2,2,08,81,19,229,,71,08,040,36,70,06,354,28,86,02,043,*68
$BDGSV,2,1,07,229,76,246,39,230,45,058,33,213,29,043,31,226,24,314,40*6F
$BDGSV,2,2,07,205,19,120,23,208,07,032,31,202,02,100,*6F
$GAGSV,2,1,06,130,78,169,36,127,42,307,44,115,40,211,,136,28,048,36*69
$GAGSV,2,2,06,102,27,138,37,119,00,327,*69
$GPGSA,A,3,05,16,21,25,26,29,31,,,,,,1.8,1.0,1.5*35
$GNGSA,A,3,05,16,21,25,26,29,31,,,,,,1.8,1.0,1.5*2B
$GNGSA,A,3,70,71,77,79,87,88,,,,,,,1.8,1.0,1.5*20
$QZGSA,A,3,,,,,,,,,,,,,1.8,1.0,1.5*22
$IMGSA,A,3,,,,,,,,,,,,,1.8,1.0,1.5*2D
$BDGSA,A,3,208,213,226,229,230,,,,,,,,1.8,1.0,1.5*1B
$GAGSA,A,3,102,127,130,136,,,,,,,,,1.8,1.0,1.5*2E
$GPRMC,154504.00,A,4723.877813,N,00822.578372,E,000.0,,270320,,,A*71
$GPGGA,154505.00,4723.877813,N,00822.578372,E,1,23,0.4,544.7,M,48.0,M,,*63
$PGLOR,9,STA,154505.00,-0.020,0.000,-104,1,4,0,P,F,L,0,C,3,S,00100002,28,4,R,000833F4,TPEF,30,44702,LC,,,*77
$GPGSV,3,1,10,21,57,175,40,29,57,057,32,31,50,236,34,26,50,301,42*74
$GPGSV,3,2,10,25,30,121,41,16,20,300,39,05,16,056,31,04,06,315,*70
$GPGSV,3,3,10,09,00,345,,20,00,161,*77
$GLGSV,2,1,08,88,65,241,32,87,61,032,42,77,46,159,30,79,21,325,42*67
$GLGSV,2,2,08,81,19,229,,71,08,040,36,70,06,354,28,86,02,043,*68
$BDGSV,2,1,07,229,76,246,40,230,45,058,32,213,29,043,31,226,24,314,40*60
$BDGSV,2,2,07,205,19,120,23,208,07,032,30,202,02,100,*6E
$GAGSV,2,1,06,130,78,169,36,127,42,307,43,115,40,211,,136,28,048,36*6E
$GAGSV,2,2,06,102,27,138,37,119,00,327,*69
$GPGSA,A,3,05,16,21,25,26,29,31,,,,,,1.8,1.0,1.5*35
$GNGSA,A,3,05,16,21,25,26,29,31,,,,,,1.8,1.0,1.5*2B
$GNGSA,A,3,70,71,77,79,87,88,,,,,,,1.8,1.0,1.5*20
$QZGSA,A,3,,,,,,,,,,,,,1.8,1.0,1.5*22
$IMGSA,A,3,,,,,,,,,,,,,1.8,1.0,1.5*2D
$BDGSA,A,3,205,208,213,226,229,230,,,,,,,1.8,1.0,1.5*2C
$GAGSA,A,3,102,127,130,136,,,,,,,,,1.8,1.0,1.5*2E
$GPRMC,154505.00,A,4723.877813,N,00822.578372,E,000.0,,270320,,,A*70
$GPGGA,154506.00,4723.877813,N,00822.578372,E,1,23,0.4,544.7,M,48.0,M,,*60
$PGLOR,9,STA,154506.00,-0.020,0.000,-104,1,4,0,P,F,L,0,C,3,S,00100002,28,5,R,000833F4,TPEF,30,45702,LC,,,*74
$GPGSV,3,1,10,21,57,175,41,29,57,057,31,31,50,236,34,26,50,301,41*75
$GPGSV,3,2,10,25,30,121,42,16,20,300,38,05,16,056,33,04,06,315,*70
$GPGSV,3,3,10,09,00,345,,20,00,161,*77
$GLGSV,2,1,08,88,65,241,32,87,61,032,42,77,46,159,31,79,21,325,42*66
$GLGSV,2,2,08,81,19,229,,71,08,040,35,70,06,354,27,86,02,043,*64
$BDGSV,2,1,07,229,76,246,40,230,45,058,31,213,29,043,30,226,24,314,40*62
$BDGSV,2,2,07,205,19,120,,208,07,032,32,202,02,100,*6D
$GAGSV,2,1,06,130,78,169,37,127,42,307,43,115,40,211,,136,28,048,36*6F
$GAGSV,2,2,06,102,27,138,38,119,00,327,*66
$GPGSA,A,3,05,16,21,25,26,29,31,,,,,,2.0,1.0,1.7*3C
$GNGSA,A,3,05,16,21,25,26,29,31,,,,,,2.0,1.0,1.7*22
$GNGSA,A,3,70,71,77,79,87,88,,,,,,,2.0,1.0,1.7*29
$QZGSA,A,3,,,,,,,,,,,,,2.0,1.0,1.7*2B
$IMGSA,A,3,,,,,,,,,,,,,2.0,1.0,1.7*24
$BDGSA,A,3,208,213,226,229,230,,,,,,,,2.0,1.0,1.7*12
$GAGSA,A,3,102,127,130,136,,,,,,,,,2.0,1.0,1.7*27
$GPRMC,154506.00,A,4723.877813,N,00822.578372,E,000.0,,270320,,,A*73
$GPGGA,154507.00,4723.877813,N,00822.578372,E,1,22,0.4,544.7,M,48.0,M,,*60
$PGLOR,9,STA,154507.00,-0.020,0.000,-104,1,4,0,P,F,L,0,C,3,S,00100002,28,5,R,000833F4,TPEF,30,46702,LC,,,*76
$GPGSV,3,1,10,21,57,175,41,29,57,057,34,31,50,236,35,26,50,301,40*70
$GPGSV,3,2,10,25,30,121,42,16,20,300,38,05,16,056,33,04,06,315,*70
$GPGSV,3,3,10,09,00,345,,20,00,161,*77
$GLGSV,2,1,08,88,65,241,33,87,61,032,42,77,46,159,31,79,21,325,41*64
$GLGSV,2,2,08,81,19,229,13,71,08,040,34,70,06,354,27,86,02,043,*67
$BDGSV,2,1,07,229,76,246,40,230,45,058,32,213,29,043,30,226,24,314,40*61
$BDGSV,2,2,07,205,19,120,22,208,07,032,,202,02,100,*6C
$GAGSV,2,1,06,130,78,169,40,127,42,307,42,115,40,211,19,136,28,048,36*66
$GAGSV,2,2,06,102,27,138,37,119,00,327,*69
$GPGSA,A,3,05,16,21,25,26,29,31,,,,,,1.7,1.0,1.4*3B
$GNGSA,A,3,05,16,21,25,26,29,31,,,,,,1.7,1.0,1.4*25
$GNGSA,A,3,70,71,77,79,87,88,,,,,,,1.7,1.0,1.4*2E
$QZGSA,A,3,,,,,,,,,,,,,1.7,1.0,1.4*2C
$IMGSA,A,3,,,,,,,,,,,,,1.7,1.0,1.4*23
$BDGSA,A,3,205,213,226,229,230,,,,,,,,1.7,1.0,1.4*18
$GAGSA,A,3,102,127,130,136,,,,,,,,,1.7,1.0,1.4*20
$GPRMC,154507.00,A,4723.877813,N,00822.578372,E,000.0,,270320,,,A*72
$GPGGA,154508.00,4723.877813,N,00822.578372,E,1,24,0.4,544.7,M,48.0,M,,*69
$PGLOR,9,STA,154508.00,-0.020,0.000,-104,1,4,0,P,F,L,0,C,3,S,00100002,28,5,R,000833F4,TPEF,30,47702,LC,,,*78
$GPGSV,3,1,10,21,57,175,41,29,57,057,43,31,50,236,35,26,50,301,40*70
$GPGSV,3,2,10,25,30,121,41,16,20,300,37,05,16,056,33,04,06,315,*7C
$GPGSV,3,3,10,09,00,345,,20,00,161,*77
$GLGSV,2,1,08,88,65,241,33,87,61,032,42,77,46,159,30,79,21,325,41*65
$GLGSV,2,2,08,81,19,229,14,71,08,040,34,70,06,354,29,86,02,043,*6E
$BDGSV,2,1,07,229,76,246,40,230,45,058,40,213,29,043,29,226,24,314,40*6C
$BDGSV,2,2,07,205,19,120,22,208,07,032,30,202,02,100,*6F
$GAGSV,2,1,06,130,78,169,41,127,42,307,41,115,40,211,24,136,28,048,36*6A
$GAGSV,2,2,06,102,27,138,37,119,00,327,*69
$GPGSA,A,3,05,16,21,25,26,29,31,,,,,,1.9,1.0,1.7*36
$GNGSA,A,3,05,16,21,25,26,29,31,,,,,,1.9,1.0,1.7*28
$GNGSA,A,3,70,71,77,79,87,88,,,,,,,1.9,1.0,1.7*23
$QZGSA,A,3,,,,,,,,,,,,,1.9,1.0,1.7*21
$IMGSA,A,3,,,,,,,,,,,,,1.9,1.0,1.7*2E
$BDGSA,A,3,205,208,226,229,230,,,,,,,,1.9,1.0,1.7*1F
$GAGSA,A,3,102,115,127,130,136,,,,,,,,1.9,1.0,1.7*18
$GPRMC,154508.00,A,4723.877813,N,00822.578372,E,000.0,,270320,,,A*7D
$GPGGA,154509.00,4723.877813,N,00822.578372,E,1,25,0.4,544.7,M,48.0,M,,*69
$PGLOR,9,STA,154509.00,-0.020,0.000,-104,1,4,0,P,F,L,0,C,3,S,00100002,28,5,R,000833F4,TPEF,30,48702,LC,,,*76
$GPGSV,3,1,10,21,57,175,40,29,57,057,43,31,50,236,34,26,50,301,39*7E
$GPGSV,3,2,10,25,29,121,41,16,20,300,37,05,16,056,33,04,06,315,*74
$GPGSV,3,3,10,09,00,345,,20,00,161,*77
$GLGSV,2,1,08,88,65,241,33,87,61,032,41,77,46,159,29,79,21,325,40*6F
$GLGSV,2,2,08,81,19,229,14,71,08,040,34,70,06,354,31,86,02,043,*67
$BDGSV,2,1,07,229,76,246,41,230,45,058,41,213,29,043,28,226,24,314,39*63
$BDGSV,2,2,07,205,19,120,22,208,07,032,30,202,02,100,*6F
$GAGSV,2,1,06,130,78,169,42,127,42,307,41,115,40,211,24,136,28,048,36*69
$GAGSV,2,2,06,102,27,138,37,119,00,327,*69
$GPGSA,A,3,05,16,21,25,26,29,31,,,,,,1.9,1.0,1.7*36
$GNGSA,A,3,05,16,21,25,26,29,31,,,,,,1.9,1.0,1.7*28
$GNGSA,A,3,70,71,77,79,87,88,,,,,,,1.9,1.0,1.7*23
$QZGSA,A,3,,,,,,,,,,,,,1.9,1.0,1.7*21
$IMGSA,A,3,,,,,,,,,,,,,1.9,1.0,1.7*2E
$BDGSA,A,3,205,208,213,226,229,230,,,,,,,1.9,1.0,1.7*2F
$GAGSA,A,3,102,115,127,130,136,,,,,,,,1.9,1.0,1.7*18
$GPRMC,154509.00,A,4723.877813,N,00822.578372,E,000.0,,270320,,,A*7C
$GPGGA,154510.00,4723.877813,N,00822.578372,E,1,23,0.4,544.7,M,48.0,M,,*67
$PGLOR,9,STA,154510.00,-0.020,0.000,-104,1,4,0,P,F,L,0,C,3,S,00100002,28,5,R,000833F4,TPEF,30,49702,LC,,,*7F
$GPGSV,3,1,10,21,57,175,40,29,57,057,43,31,50,236,34,26,50,301,39*7E
$GPGSV,3,2,10,25,29,121,40,16,20,300,36,05,16,056,33,04,06,315,12*77
$GPGSV,3,3,10,09,00,345,,20,00,161,*77
$GLGSV,2,1,08,88,65,241,33,87,61,032,41,77,46,159,29,79,21,325,40*6F
$GLGSV,2,2,08,81,19,229,14,71,08,040,34,70,06,354,31,86,02,043,*67
$BDGSV,2,1,07,229,76,246,40,230,45,058,40,213,29,043,27,226,24,314,39*6C
$BDGSV,2,2,07,205,19,120,28,208,07,032,29,202,02,100,*6D
$GAGSV,2,1,06,130,78,169,42,127,42,307,41,115,40,211,,136,28,048,35*6C
$GAGSV,2,2,06,102,27,138,37,119,00,327,*69
$GPGSA,A,3,05,16,21,25,26,29,31,,,,,,1.8,1.0,1.5*35
$GNGSA,A,3,05,16,21,25,26,29,31,,,,,,1.8,1.0,1.5*2B
$GNGSA,A,3,70,71,77,79,87,88,,,,,,,1.8,1.0,1.5*20
$QZGSA,A,3,,,,,,,,,,,,,1.8,1.0,1.5*22
$IMGSA,A,3,,,,,,,,,,,,,1.8,1.0,1.5*2D
$BDGSA,A,3,205,208,213,226,229,230,,,,,,,1.8,1.0,1.5*2C
$GAGSA,A,3,102,127,130,136,,,,,,,,,1.8,1.0,1.5*2E
$GPRMC,154510.00,A,4723.877813,N,00822.578372,E,000.0,,270320,,,A*74
$GPGGA,154511.00,4723.877813,N,00822.578372,E,1,22,0.4,544.7,M,48.0,M,,*67
$PGLOR,9,STA,154511.00,-0.020,0.000,-104,1,4,0,P,F,L,0,C,3,S,00100002,28,5,R,000833F4,TPEF,30,50702,LC,,,*76
$GPGSV,3,1,10,21,57,175,40,29,57,057,42,31,50,236,34,26,50,301,38*7E
$GPGSV,3,2,10,25,29,121,40,16,20,300,34,05,16,055,32,04,06,315,*74
$GPGSV,3,3,10,09,00,345,,20,00,161,*77
$GLGSV,2,1,08,88,65,241,32,87,61,032,40,77,46,159,28,79,21,325,39*60
$GLGSV,2,2,08,81,19,229,14,71,08,040,33,70,06,354,31,86,02,043,*60
$BDGSV,2,1,07,229,76,246,39,230,45,058,39,213,29,043,26,226,24,314,38*6C
$BDGSV,2,2,07,205,19,120,,208,07,032,28,202,02,100,*66
$GAGSV,2,1,06,130,78,169,41,127,42,307,40,115,40,211,22,136,28,048,35*6E
$GAGSV,2,2,06,102,27,138,36,119,00,327,*68
$GPGSA,A,3,05,16,21,25,26,29,31,,,,,,2.2,1.1,1.9*31
$GNGSA,A,3,05,16,21,25,26,29,31,,,,,,2.2,1.1,1.9*2F
$GNGSA,A,3,70,71,77,79,87,88,,,,,,,2.2,1.1,1.9*24
$QZGSA,A,3,,,,,,,,,,,,,2.2,1.1,1.9*26
$IMGSA,A,3,,,,,,,,,,,,,2.2,1.1,1.9*29
$BDGSA,A,3,208,226,229,230,,,,,,,,,2.2,1.1,1.9*2F
$GAGSA,A,3,102,115,127,130,136,,,,,,,,2.2,1.1,1.9*1F
$GPRMC,154511.00,A,4723.877813,N,00822.578372,E,000.0,,270320,,,A*75
$GPGGA,154512.00,4723.877813,N,00822.578372,E,1,23,0.6,544.7,M,48.0,M,,*67
$PGLOR,9,STA,154512.00,-0.020,0.000,-104,1,6,0,P,F,L,0,C,3,S,00100002,28,5,R,000833F4,TPEF,30,51702,LC,,,*76
$GPGSV,3,1,10,21,57,175,39,29,57,057,41,31,50,236,33,26,50,301,37*7B
$GPGSV,3,2,10,25,29,121,40,16,20,300,33,05,16,055,32,04,06,315,12*70
$GPGSV,3,3,10,09,00,345,,20,00,161,*77
$GLGSV,2,1,08,88,65,241,32,87,61,032,39,77,46,159,28,79,21,325,39*6E
$GLGSV,2,2,08,81,19,229,14,71,08,040,32,70,06,354,30,86,02,043,*60
$BDGSV,2,1,07,229,76,246,38,230,45,058,38,213,29,043,,226,24,314,36*66
$BDGSV,2,2,07,205,19,120,26,208,07,032,28,202,02,100,*62
$GAGSV,2,1,06,130,78,169,41,127,42,307,40,115,40,211,,136,28,048,35*6E
$GAGSV,2,2,06,102,27,138,34,119,00,327,*6A
$GPGSA,A,3,05,16,21,25,26,29,31,,,,,,2.2,1.1,1.9*31
$GNGSA,A,3,05,16,21,25,26,29,31,,,,,,2.2,1.1,1.9*2F
$GNGSA,A,3,70,71,77,79,87,88,,,,,,,2.2,1.1,1.9*24
$QZGSA,A,3,,,,,,,,,,,,,2.2,1.1,1.9*26
$IMGSA,A,3,,,,,,,,,,,,,2.2,1.1,1.9*29
$BDGSA,A,3,205,208,226,229,230,,,,,,,,2.2,1.1,1.9*18
$GAGSA,A,3,102,127,130,136,,,,,,,,,2.2,1.1,1.9*2A
$GPRMC,154512.00,A,4723.877813,N,00822.578372,E,000.0,,270320,,,A*76
$GPGGA,154513.00,4723.877813,N,00822.578372,E,1,22,0.6,544.7,M,48.0,M,,*67
$PGLOR,9,STA,154513.00,-0.020,0.000,-104,1,6,0,P,F,L,0,C,3,S,00100002,28,5,R,000833F4,TPEF,30,52702,LC,,,*74
$GPGSV,3,1,10,21,57,175,39,29,57,057,40,31,50,236,32,26,50,301,37*7B
$GPGSV,3,2,10,25,29,121,40,16,20,300,32,05,16,055,32,04,06,315,*72
$GPGSV,3,3,10,09,00,345,,20,00,161,*77
$GLGSV,2,1,08,88,65,241,31,87,61,032,39,77,46,159,28,79,21,325,39*6D
$GLGSV,2,2,08,81,19,229,14,71,08,040,31,70,06,354,30,86,02,043,*63
$BDGSV,2,1,07,229,76,246,37,230,45,058,36,213,29,043,24,226,24,314,35*62
$BDGSV,2,2,07,205,19,120,25,208,07,032,,202,02,100,*6B
$GAGSV,2,1,06,130,78,169,41,127,42,307,39,115,40,211,,136,28,048,35*60
$GAGSV,2,2,06,102,27,138,33,119,00,327,*6D
$GPGSA,A,3,05,16,21,25,26,29,31,,,,,,2.3,1.2,2.0*39
$GNGSA,A,3,05,16,21,25,26,29,31,,,,,,2.3,1.2,2.0*27
$GNGSA,A,3,70,71,77,79,87,88,,,,,,,2.3,1.2,2.0*2C
$QZGSA,A,3,,,,,,,,,,,,,2.3,1.2,2.0*2E
$IMGSA,A,3,,,,,,,,,,,,,2.3,1.2,2.0*21
$BDGSA,A,3,213,226,229,230,,,,,,,,,2.3,1.2,2.0*2D
$GAGSA,A,3,102,127,130,136,,,,,,,,,2.3,1.2,2.0*22
$GPRMC,154513.00,A,4723.877813,N,00822.578372,E,000.0,,270320,,,A*77
$GPGGA,154514.00,4723.877813,N,00822.578372,E,1,23,0.6,544.7,M,48.0,M,,*61
$PGLOR,9,STA,154514.00,-0.020,0.000,-104,1,6,0,P,F,L,0,C,2,S,00100002,28,5,R,000833F4,TPEF,30,53702,LC,,,*73
$GPGSV,3,1,10,21,57,175,41,29,57,057,39,31,50,236,32,26,50,301,37*7A
$GPGSV,3,2,10,25,29,121,39,16,20,300,31,05,16,055,31,04,06,315,*7C
$GPGSV,3,3,10,09,00,345,,20,00,161,*77
$GLGSV,2,1,08,88,65,241,31,87,61,032,38,77,46,159,27,79,21,325,38*62
$GLGSV,2,2,08,81,19,229,,71,08,040,32,70,06,354,29,86,02,043,*6D
$BDGSV,2,1,07,229,76,246,37,230,45,058,36,213,29,043,24,226,24,314,34*63
$BDGSV,2,2,07,205,19,120,27,208,07,032,,202,02,100,*69
$GAGSV,2,1,06,130,78,169,41,127,42,307,38,115,40,211,,136,28,048,35*61
$GAGSV,2,2,06,102,27,138,33,119,00,327,*6D
$GPGSA,A,3,05,16,21,25,26,29,31,,,,,,2.1,1.1,1.8*33
$GNGSA,A,3,05,16,21,25,26,29,31,,,,,,2.1,1.1,1.8*2D
$GNGSA,A,3,70,71,77,79,87,88,,,,,,,2.1,1.1,1.8*26
$QZGSA,A,3,,,,,,,,,,,,,2.1,1.1,1.8*24
$IMGSA,A,3,,,,,,,,,,,,,2.1,1.1,1.8*2B
$BDGSA,A,3,205,213,226,229,230,,,,,,,,2.1,1.1,1.8*10
$GAGSA,A,3,102,127,130,136,,,,,,,,,2.1,1.1,1.8*28
$GPRMC,154514.00,A,4723.877813,N,00822.578372,E,000.0,,270320,,,A*70
$GPGGA,154515.00,4723.877813,N,00822.578372,E,1,24,0.6,544.7,M,48.0,M,,*67
$PGLOR,9,STA,154515.00,-0.020,0.000,-104,1,6,0,P,F,L,0,C,2,S,00100002,28,5,R,000833F4,TPEF,30,54702,LC,,,*75
$GPGSV,3,1,10,21,57,175,41,29,57,057,39,31,50,236,32,26,50,301,36*7B
$GPGSV,3,2,10,25,29,121,39,16,20,300,31,05,16,055,31,04,06,315,*7C
$GPGSV,3,3,10,09,00,345,,20,00,161,*77
$GLGSV,2,1,08,88,65,241,31,87,61,032,38,77,45,159,27,79,21,325,38*61
$GLGSV,2,2,08,81,19,229,,71,08,040,31,70,06,354,29,86,02,043,*6E
$BDGSV,2,1,07,229,76,246,40,230,45,058,36,213,29,043,29,226,24,314,34*6E
$BDGSV,2,2,07,205,19,120,31,208,07,032,24,202,02,100,*68
$GAGSV,2,1,06,130,78,169,40,127,42,307,38,115,40,211,21,136,28,048,34*62
$GAGSV,2,2,06,102,27,138,33,119,00,326,*6C
$GPGSA,A,3,05,16,21,25,26,29,31,,,,,,1.9,1.1,1.5*35
$GNGSA,A,3,05,16,21,25,26,29,31,,,,,,1.9,1.1,1.5*2B
$GNGSA,A,3,70,71,77,79,87,88,,,,,,,1.9,1.1,1.5*20
$QZGSA,A,3,,,,,,,,,,,,,1.9,1.1,1.5*22
$IMGSA,A,3,,,,,,,,,,,,,1.9,1.1,1.5*2D
$BDGSA,A,3,205,213,226,229,230,,,,,,,,1.9,1.1,1.5*16
$GAGSA,A,3,102,115,127,130,136,,,,,,,,1.9,1.1,1.5*1B
$GPRMC,154515.00,A,4723.877813,N,00822.578372,E,000.0,,270320,,,A*71
$GPGGA,154516.00,4723.877813,N,00822.578372,E,1,24,0.6,544.7,M,48.0,M,,*64
$PGLOR,9,STA,154516.00,-0.020,0.000,-103,1,6,0,P,F,L,0,C,2,S,00100002,28,5,R,000833F4,TPEF,30,55702,LC,,,*70
$GPGSV,3,1,10,21,57,175,41,29,57,057,39,31,50,236,34,26,50,301,36*7D
$GPGSV,3,2,10,25,29,121,38,16,20,300,31,05,16,055,32,04,06,315,*7E
$GPGSV,3,3,10,09,00,345,,20,00,161,*77
$GLGSV,2,1,08,88,65,241,31,87,61,032,37,77,45,159,26,79,21,325,37*60
$GLGSV,2,2,08,81,19,229,,71,08,040,33,70,06,354,29,86,02,043,*6C
$BDGSV,2,1,07,229,76,246,40,230,45,058,36,213,29,043,29,226,24,314,34*6E
$BDGSV,2,2,07,205,19,120,32,208,07,032,,202,02,100,*6D
$GAGSV,2,1,06,130,78,169,39,127,42,307,38,115,40,211,24,136,28,048,33*6E
$GAGSV,2,2,06,102,27,138,33,119,00,326,*6C
$GPGSA,A,3,05,16,21,25,26,29,31,,,,,,2.0,1.0,1.7*3C
$GNGSA,A,3,05,16,21,25,26,29,31,,,,,,2.0,1.0,1.7*22
$GNGSA,A,3,70,71,77,79,87,88,,,,,,,2.0,1.0,1.7*29
$QZGSA,A,3,,,,,,,,,,,,,2.0,1.0,1.7*2B
$IMGSA,A,3,,,,,,,,,,,,,2.0,1.0,1.7*24
$BDGSA,A,3,205,213,226,229,230,,,,,,,,2.0,1.0,1.7*1F
$GAGSA,A,3,102,115,127,130,136,,,,,,,,2.0,1.0,1.7*12
$GPRMC,154516.00,A,4723.877813,N,00822.578372,E,000.0,,270320,,,A*72
$GPGGA,154517.00,4723.877813,N,00822.578372,E,1,22,0.6,544.7,M,48.0,M,,*63
$PGLOR,9,STA,154517.00,-0.020,0.000,-103,1,6,0,P,F,L,0,C,3,S,00100002,28,5,R,000833F4,TPEF,30,56702,LC,,,*73
$GPGSV,3,1,10,21,57,175,43,29,57,057,39,31,50,236,34,26,50,301,36*7F
$GPGSV,3,2,10,25,29,121,38,16,20,300,33,05,16,055,39,04,06,315,*77
$GPGSV,3,3,10,09,00,345,,20,00,161,*77
$GLGSV,2,1,08,88,65,241,31,87,61,032,37,77,45,159,25,79,21,325,38*6C
$GLGSV,2,2,08,81,19,229,,71,08,040,35,70,06,354,28,86,02,043,*6B
$BDGSV,2,1,07,229,76,246,41,230,45,058,35,213,29,043,,226,24,314,34*67
$BDGSV,2,2,07,205,19,120,,208,07,032,25,202,02,100,*6B
$GAGSV,2,1,06,130,78,169,38,127,42,307,38,115,40,211,26,136,28,048,33*6D
$GAGSV,2,2,06,102,27,138,32,119,00,326,*6D
$GPGSA,A,3,05,16,21,25,26,29,31,,,,,,1.8,0.9,1.5*3D
$GNGSA,A,3,05,16,21,25,26,29,31,,,,,,1.8,0.9,1.5*23
$GNGSA,A,3,70,71,77,79,87,88,,,,,,,1.8,0.9,1.5*28
$QZGSA,A,3,,,,,,,,,,,,,1.8,0.9,1.5*2A
$IMGSA,A,3,,,,,,,,,,,,,1.8,0.9,1.5*25
$BDGSA,A,3,208,226,229,230,,,,,,,,,1.8,0.9,1.5*23
$GAGSA,A,3,102,115,127,130,136,,,,,,,,1.8,0.9,1.5*13
$GPRMC,154517.00,A,4723.877813,N,00822.578372,E,000.0,,270320,,,A*73
$GPGGA,154518.00,4723.877813,N,00822.578372,E,1,22,0.6,544.7,M,48.0,M,,*6C
$PGLOR,9,STA,154518.00,-0.020,0.000,-103,1,6,0,P,F,L,0,C,3,S,00100002,28,5,R,000833F4,TPEF,30,57702,LC,,,*7D
$GPGSV,3,1,10,21,57,175,45,29,57,057,39,31,50,236,36,26,50,301,36*7B
$GPGSV,3,2,10,25,29,121,37,16,20,300,34,05,16,055,40,04,06,315,*71
$GPGSV,3,3,10,09,00,345,,20,00,161,*77
$GLGSV,2,1,08,88,65,241,30,87,61,032,36,77,45,159,25,79,21,325,38*6C
$GLGSV,2,2,08,81,19,229,,71,08,040,35,70,06,354,28,86,02,043,*6B
$BDGSV,2,1,07,229,76,246,41,230,45,058,35,213,29,043,,226,24,314,36*65
$BDGSV,2,2,07,205,19,120,30,208,07,032,24,202,02,100,*69
$GAGSV,2,1,06,130,78,169,38,127,42,307,38,115,40,211,28,136,28,048,32*62
$GAGSV,2,2,06,102,27,138,32,119,00,326,*6D
$GPGSA,A,3,05,16,21,25,26,29,31,,,,,,1.9,1.0,1.6*37
$GNGSA,A,3,05,16,21,25,26,29,31,,,,,,1.9,1.0,1.6*29
$GNGSA,A,3,70,71,77,79,87,88,,,,,,,1.9,1.0,1.6*22
$QZGSA,A,3,,,,,,,,,,,,,1.9,1.0,1.6*20
$IMGSA,A,3,,,,,,,,,,,,,1.9,1.0,1.6*2F
$BDGSA,A,3,205,226,229,230,,,,,,,,,1.9,1.0,1.6*24
$GAGSA,A,3,102,115,127,130,136,,,,,,,,1.9,1.0,1.6*19
$GPRMC,154518.00,A,4723.877813,N,00822.578372,E,000.0,,270320,,,A*7C
$GPGGA,154519.00,4723.877813,N,00822.578372,E,1,25,0.6,544.7,M,48.0,M,,*6A
$PGLOR,9,STA,154519.00,-0.020,0.000,-103,1,6,0,P,F,L,0,C,3,S,00100002,28,5,R,000833F4,TPEF,30,58702,LC,,,*73
$GPGSV,3,1,10,21,57,175,45,29,57,057,38,31,50,236,36,26,50,301,35*79
$GPGSV,3,2,10,25,29,121,36,16,20,300,34,05,16,055,40,04,06,315,18*79
$GPGSV,3,3,10,09,00,345,,20,00,161,*77
$GLGSV,2,1,08,88,65,241,30,87,61,032,35,77,45,159,24,79,21,325,38*6E
$GLGSV,2,2,08,81,19,229,,71,08,040,36,70,06,354,28,86,02,043,*68
$BDGSV,2,1,07,229,76,246,40,230,45,058,34,213,29,043,27,226,24,314,36*60
$BDGSV,2,2,07,205,19,120,29,208,07,032,25,202,02,100,*60
$GAGSV,2,1,06,130,78,169,37,127,42,307,37,115,40,211,37,136,28,048,32*6C
$GAGSV,2,2,06,102,27,138,32,119,00,326,*6D
$GPGSA,A,3,04,05,16,21,25,26,29,31,,,,,1.9,1.0,1.6*33
$GNGSA,A,3,04,05,16,21,25,26,29,31,,,,,1.9,1.0,1.6*2D
$GNGSA,A,3,70,71,77,79,87,88,,,,,,,1.9,1.0,1.6*22
$QZGSA,A,3,,,,,,,,,,,,,1.9,1.0,1.6*20
$IMGSA,A,3,,,,,,,,,,,,,1.9,1.0,1.6*2F
$BDGSA,A,3,205,208,213,226,229,230,,,,,,,1.9,1.0,1.6*2E
$GAGSA,A,3,102,115,127,130,136,,,,,,,,1.9,1.0,1.6*19
$GPRMC,154519.00,A,4723.877813,N,00822.578372,E,000.0,,270320,,,A*7D
$GPGGA,154520.00,4723.877813,N,00822.578372,E,1,24,0.4,544.7,M,48.0,M,,*63
$PGLOR,9,STA,154520.00,-0.020,0.000,-103,1,4,0,P,F,L,0,C,3,S,00100002,28,5,R,000833F4,TPEF,30,59702,LC,,,*7A
$GPGSV,3,1,10,21,57,175,44,29,57,057,38,31,50,236,36,26,50,301,35*78
$GPGSV,3,2,10,25,29,121,36,16,20,300,35,05,16,055,40,04,06,315,*71
$GPGSV,3,3,10,09,00,345,,20,00,161,*77
$GLGSV,2,1,08,88,65,241,30,87,61,032,34,77,45,159,23,79,21,325,37*67
$GLGSV,2,2,08,81,19,229,,71,08,040,36,70,06,354,28,86,02,043,*68
$BDGSV,2,1,07,229,76,246,40,230,45,058,34,213,29,043,27,226,24,314,37*61
$BDGSV,2,2,07,205,19,120,29,208,07,032,29,202,02,100,*6C
$GAGSV,2,1,06,130,78,169,36,127,42,307,37,115,40,211,37,136,28,048,31*6E
$GAGSV,2,2,06,102,27,138,32,119,00,326,*6D
$GPGSA,A,3,05,16,21,25,26,29,31,,,,,,1.9,1.0,1.7*36
$GNGSA,A,3,05,16,21,25,26,29,31,,,,,,1.9,1.0,1.7*28
$GNGSA,A,3,70,71,77,79,87,88,,,,,,,1.9,1.0,1.7*23
$QZGSA,A,3,,,,,,,,,,,,,1.9,1.0,1.7*21
$IMGSA,A,3,,,,,,,,,,,,,1.9,1.0,1.7*2E
$BDGSA,A,3,205,208,213,226,229,230,,,,,,,1.9,1.0,1.7*2F
$GAGSA,A,3,102,115,127,130,136,,,,,,,,1.9,1.0,1.7*18
$GPRMC,154520.00,A,4723.877813,N,00822.578372,E,000.0,,270320,,,A*77
$GPGGA,154521.00,4723.877813,N,00822.578372,E,1,23,0.4,544.7,M,48.0,M,,*65
$PGLOR,9,STA,154521.00,-0.020,0.000,-103,1,4,0,P,F,L,0,C,3,S,00100002,28,5,R,000833F4,TPEF,30,60702,LC,,,*71
$PGLOR,2,PFM,HAL,P,0,0,100,0,RF,P,40,0.0,1,RTC,,P,STO,P,LTO,P,SW,P,,,OSC,PPP*35
$GPGSV,3,1,10,21,57,175,44,29,57,057,37,31,50,236,36,26,50,301,35*77
$GPGSV,3,2,10,25,29,122,36,16,20,300,35,05,16,055,40,04,06,315,*72
$GPGSV,3,3,10,09,00,345,,20,00,161,*77
$GLGSV,2,1,08,88,65,241,29,87,61,032,34,77,45,159,23,79,21,325,38*60
$GLGSV,2,2,08,81,19,229,,71,08,040,36,70,06,354,27,86,02,043,*67
$BDGSV,2,1,07,229,76,246,40,230,45,058,33,213,29,043,26,226,24,314,36*66
$BDGSV,2,2,07,205,19,120,29,208,07,032,28,202,02,100,*6D
$GAGSV,2,1,06,130,78,169,35,127,42,307,37,115,40,211,36,136,28,048,31*6C
$GAGSV,2,2,06,102,27,138,31,119,00,326,*6E
$GPGSA,A,3,05,16,21,25,26,29,31,,,,,,1.8,0.9,1.5*3D
$GNGSA,A,3,05,16,21,25,26,29,31,,,,,,1.8,0.9,1.5*23
$GNGSA,A,3,70,71,77,79,87,88,,,,,,,1.8,0.9,1.5*28
$QZGSA,A,3,,,,,,,,,,,,,1.8,0.9,1.5*2A
$IMGSA,A,3,,,,,,,,,,,,,1.8,0.9,1.5*25
$BDGSA,A,3,205,208,226,229,230,,,,,,,,1.8,0.9,1.5*14
$GAGSA,A,3,102,115,127,130,136,,,,,,,,1.8,0.9,1.5*13
$GPRMC,154521.00,A,4723.877813,N,00822.578372,E,000.0,,270320,,,A*76
$GPGGA,154522.00,4723.877813,N,00822.578372,E,1,23,0.4,544.7,M,48.0,M,,*66
$PGLOR,9,STA,154522.00,-0.020,0.000,-103,1,4,0,P,F,L,0,C,3,S,00100002,28,5,R,000833F4,TPEF,30,61702,LC,,,*73
$GPGSV,3,1,10,21,57,175,44,29,57,057,36,31,50,236,36,26,50,301,35*76
$GPGSV,3,2,10,25,29,122,36,16,21,300,35,05,16,055,40,04,06,315,*73
$GPGSV,3,3,10,09,00,345,,20,00,161,*77
$GLGSV,2,1,08,88,65,241,29,87,61,032,33,77,45,159,22,79,21,325,37*69
$GLGSV,2,2,08,81,19,229,,71,08,040,36,70,06,354,27,86,02,043,*67
$BDGSV,2,1,07,229,76,246,40,230,45,058,32,213,29,043,25,226,24,314,37*65
$BDGSV,2,2,07,205,19,120,29,208,07,032,,202,02,100,*67
$GAGSV,2,1,06,130,78,169,35,127,42,307,36,115,40,211,35,136,28,048,31*6E
$GAGSV,2,2,06,102,27,138,31,119,00,326,*6E
$GPGSA,A,3,05,16,21,25,26,29,31,,,,,,1.8,0.9,1.5*3D
$GNGSA,A,3,05,16,21,25,26,29,31,,,,,,1.8,0.9,1.5*23
$GNGSA,A,3,70,71,77,79,87,88,,,,,,,1.8,0.9,1.5*28
$QZGSA,A,3,,,,,,,,,,,,,1.8,0.9,1.5*2A
$IMGSA,A,3,,,,,,,,,,,,,1.8,0.9,1.5*25
$BDGSA,A,3,205,213,226,229,230,,,,,,,,1.8,0.9,1.5*1E
$GAGSA,A,3,102,115,127,130,136,,,,,,,,1.8,0.9,1.5*13
$GPRMC,154522.00,A,4723.877813,N,00822.578372,E,000.0,,270320,,,A*75
$GPGGA,154523.00,4723.877813,N,00822.578372,E,1,22,0.4,544.7,M,48.0,M,,*66
$PGLOR,9,STA,154523.00,-0.020,0.000,-103,1,4,0,P,F,L,0,C,3,S,00100002,28,5,R,000833F4,TPEF,30,62702,LC,,,*71
$GPGSV,3,1,10,21,57,175,44,29,57,057,36,31,50,236,36,26,50,301,35*76
$GPGSV,3,2,10,25,29,122,35,16,21,300,35,05,16,055,40,04,06,315,*70
$GPGSV,3,3,10,09,00,345,,20,00,161,*77
$GLGSV,2,1,08,88,65,241,29,87,61,032,33,77,45,159,22,79,21,325,37*69
$GLGSV,2,2,08,81,19,229,13,71,08,040,36,70,06,354,26,86,02,043,*64
$BDGSV,2,1,07,229,76,246,40,230,45,058,32,213,29,043,25,226,24,314,38*6A
$BDGSV,2,2,07,205,19,120,29,208,07,032,25,202,02,100,*60
$GAGSV,2,1,06,130,78,169,34,127,42,307,36,115,40,211,34,136,28,048,30*6F
$GAGSV,2,2,06,102,27,138,30,119,00,326,*6F
$GPGSA,A,3,05,16,21,25,26,29,31,,,,,,1.9,1.0,1.6*37
$GNGSA,A,3,05,16,21,25,26,29,31,,,,,,1.9,1.0,1.6*29
$GNGSA,A,3,71,77,79,87,88,,,,,,,,1.9,1.0,1.6*25
$QZGSA,A,3,,,,,,,,,,,,,1.9,1.0,1.6*20
$IMGSA,A,3,,,,,,,,,,,,,1.9,1.0,1.6*2F
$BDGSA,A,3,205,213,226,229,230,,,,,,,,1.9,1.0,1.6*14
$GAGSA,A,3,102,115,127,130,136,,,,,,,,1.9,1.0,1.6*19
$GPRMC,154523.00,A,4723.877813,N,00822.578372,E,000.0,,270320,,,A*74
$GPGGA,154524.00,4723.877813,N,00822.578372,E,1,23,0.6,544.7,M,48.0,M,,*62
$PGLOR,9,STA,154524.00,-0.020,0.000,-103,1,6,0,P,F,L,0,C,3,S,00100002,28,5,R,000833F4,TPEF,30,63702,LC,,,*75
$GPGSV,3,1,10,21,57,175,44,29,57,057,36,31,50,236,36,26,50,301,34*77
$GPGSV,3,2,10,25,29,122,35,16,21,300,35,05,16,055,39,04,06,315,*7E
$GPGSV,3,3,10,09,00,345,,20,00,161,*77
$GLGSV,2,1,08,88,65,241,28,87,61,032,32,77,45,159,21,79,21,325,37*6A
$GLGSV,2,2,08,81,19,229,13,71,08,040,36,70,06,354,25,86,02,043,*67
$BDGSV,2,1,07,229,76,246,40,230,45,058,32,213,29,043,25,226,24,314,38*6A
$BDGSV,2,2,07,205,19,120,29,208,07,032,25,202,02,100,*60
$GAGSV,2,1,06,130,78,169,33,127,42,307,36,115,40,211,33,136,28,048,29*67
$GAGSV,2,2,06,102,27,138,30,119,00,326,*6F
$GPGSA,A,3,05,16,21,25,26,29,31,,,,,,1.9,1.1,1.6*36
$GNGSA,A,3,05,16,21,25,26,29,31,,,,,,1.9,1.1,1.6*28
$GNGSA,A,3,71,77,79,87,88,,,,,,,,1.9,1.1,1.6*24
$QZGSA,A,3,,,,,,,,,,,,,1.9,1.1,1.6*21
$IMGSA,A,3,,,,,,,,,,,,,1.9,1.1,1.6*2E
$BDGSA,A,3,205,208,213,226,229,230,,,,,,,1.9,1.1,1.6*2F
$GAGSA,A,3,102,115,127,130,136,,,,,,,,1.9,1.1,1.6*18
$GPRMC,154524.00,A,4723.877813,N,00822.578372,E,000.0,,270320,,,A*73
$GPGGA,154525.00,4723.877813,N,00822.578372,E,1,23,0.6,544.7,M,48.0,M,,*63
$PGLOR,9,STA,154525.00,-0.020,0.000,-103,1,6,0,P,F,L,0,C,3,S,00100002,28,5,R,000833F4,TPEF,30,64702,LC,,,*73
$GPGSV,3,1,10,21,57,175,44,29,57,057,35,31,50,236,36,26,50,301,34*74
$GPGSV,3,2,10,25,29,122,34,16,21,300,34,05,16,055,39,04,06,315,*7E
$GPGSV,3,3,10,09,00,345,,20,00,161,*77
$GLGSV,2,1,08,88,65,241,28,87,61,032,32,77,45,159,21,79,21,325,36*6B
$GLGSV,2,2,08,81,19,229,13,71,08,040,35,70,06,354,24,86,02,043,*65
$BDGSV,2,1,07,229,76,246,40,230,45,058,31,213,29,043,25,226,24,314,38*69
$BDGSV,2,2,07,205,19,120,29,208,07,032,26,202,02,100,*63
$GAGSV,2,1,06,130,78,169,33,127,42,307,36,115,40,211,32,136,28,048,29*66
$GAGSV,2,2,06,102,27,138,32,119,00,326,*6D
$GPGSA,A,3,05,16,21,25,26,29,31,,,,,,1.8,1.0,1.5*35
$GNGSA,A,3,05,16,21,25,26,29,31,,,,,,1.8,1.0,1.5*2B
$GNGSA,A,3,71,79,87,88,,,,,,,,,1.8,1.0,1.5*27
$QZGSA,A,3,,,,,,,,,,,,,1.8,1.0,1.5*22
$IMGSA,A,3,,,,,,,,,,,,,1.8,1.0,1.5*2D
$BDGSA,A,3,205,208,213,226,229,230,,,,,,,1.8,1.0,1.5*2C
$GAGSA,A,3,102,115,127,130,136,,,,,,,,1.8,1.0,1.5*1B
$GPRMC,154525.00,A,4723.877813,N,00822.578372,E,000.0,,270320,,,A*72
$GPGGA,154526.00,4723.877813,N,00822.578372,E,1,23,0.6,544.7,M,48.0,M,,*60
$PGLOR,9,STA,154526.00,-0.020,0.000,-103,1,6,0,P,F,L,0,C,3,S,00100002,28,5,R,000833F4,TPEF,30,65702,LC,,,*71
$GPGSV,3,1,10,21,57,175,44,29,57,057,36,31,50,236,36,26,50,301,33*70
$GPGSV,3,2,10,25,29,122,34,16,21,300,34,05,16,055,39,04,06,315,*7E
$GPGSV,3,3,10,09,00,345,,20,00,161,*77
$GLGSV,2,1,08,88,65,241,27,87,61,032,32,77,45,159,20,79,21,325,36*65
$GLGSV,2,2,08,81,19,229,14,71,08,040,35,70,06,354,23,86,02,043,*65
$BDGSV,2,1,07,229,76,246,40,230,45,058,31,213,29,043,25,226,24,314,38*69
$BDGSV,2,2,07,205,19,120,30,208,07,032,26,202,02,100,*6B
$GAGSV,2,1,06,130,78,169,32,127,42,307,36,115,40,211,31,136,28,048,28*65
$GAGSV,2,2,06,102,27,138,32,119,00,326,*6D
$GPGSA,A,3,05,16,21,25,26,29,31,,,,,,1.9,1.1,1.5*35
$GNGSA,A,3,05,16,21,25,26,29,31,,,,,,1.9,1.1,1.5*2B
$GNGSA,A,3,71,79,87,88,,,,,,,,,1.9,1.1,1.5*27
$QZGSA,A,3,,,,,,,,,,,,,1.9,1.1,1.5*22
$IMGSA,A,3,,,,,,,,,,,,,1.9,1.1,1.5*2D
$BDGSA,A,3,205,208,213,226,229,230,,,,,,,1.9,1.1,1.5*2C
$GAGSA,A,3,102,115,127,130,136,,,,,,,,1.9,1.1,1.5*1B
$GPRMC,154526.00,A,4723.877813,N,00822.578372,E,000.0,,270320,,,A*71
$GPGGA,154527.00,4723.877813,N,00822.578372,E,1,22,0.6,544.7,M,48.0,M,,*60
$PGLOR,9,STA,154527.00,-0.020,0.000,-103,1,6,0,P,F,L,0,C,3,S,00100002,28,5,R,000833F4,TPEF,30,66702,LC,,,*73
$GPGSV,3,1,10,21,57,175,43,29,57,057,35,31,50,236,35,26,50,301,33*77
$GPGSV,3,2,10,25,29,122,33,16,21,300,34,05,16,055,39,04,06,315,17*7F
$GPGSV,3,3,10,09,00,345,,20,00,161,*77
$GLGSV,2,1,08,88,66,241,27,87,61,032,31,77,45,159,20,79,21,325,36*65
$GLGSV,2,2,08,81,19,229,14,71,08,040,35,70,06,354,22,86,02,043,*64
$BDGSV,2,1,07,229,76,246,40,230,45,058,30,213,29,043,,226,24,314,38*6F
$BDGSV,2,2,07,205,19,120,29,208,07,032,,202,02,100,*67
$GAGSV,2,1,06,130,78,169,32,127,42,307,36,115,40,211,30,136,28,048,28*64
$GAGSV,2,2,06,102,27,138,31,119,00,326,*6E
$GPGSA,A,3,04,05,16,21,25,26,29,31,,,,,2.0,1.1,1.7*39
$GNGSA,A,3,04,05,16,21,25,26,29,31,,,,,2.0,1.1,1.7*27
$GNGSA,A,3,71,79,87,88,,,,,,,,,2.0,1.1,1.7*2F
$QZGSA,A,3,,,,,,,,,,,,,2.0,1.1,1.7*2A
$IMGSA,A,3,,,,,,,,,,,,,2.0,1.1,1.7*25
$BDGSA,A,3,205,226,229,230,,,,,,,,,2.0,1.1,1.7*2E
$GAGSA,A,3,102,115,127,130,136,,,,,,,,2.0,1.1,1.7*13
$GPRMC,154527.00,A,4723.877813,N,00822.578372,E,000.0,,270320,,,A*70
$GPGGA,154528.00,4723.877813,N,00822.578372,E,1,20,0.6,544.7,M,48.0,M,,*6D
$PGLOR,9,STA,154528.00,-0.020,0.000,-103,1,6,0,P,F,L,0,C,3,S,00100002,28,5,R,000833F4,TPEF,30,67702,LC,,,*7D
$GPGSV,3,1,10,21,57,175,43,29,57,057,35,31,50,236,35,26,50,301,33*77
$GPGSV,3,2,10,25,29,122,33,16,21,300,33,05,16,055,38,04,06,315,*7F
$GPGSV,3,3,10,09,00,345,,20,00,161,*77
$GLGSV,2,1,08,88,66,242,26,87,61,032,31,77,45,159,20,79,21,325,36*67
$GLGSV,2,2,08,81,19,229,14,71,08,040,35,70,06,354,22,86,02,043,*64
$BDGSV,2,1,07,229,76,246,40,230,45,058,30,213,29,043,,226,24,314,37*60
$BDGSV,2,2,07,205,19,120,28,208,07,032,,202,02,100,*66
$GAGSV,2,1,06,130,78,169,31,127,42,307,36,115,40,211,30,136,28,048,27*68
$GAGSV,2,2,06,102,27,138,31,119,00,326,*6E
$GPGSA,A,3,05,16,21,25,26,29,31,,,,,,2.0,1.1,1.7*3D
$GNGSA,A,3,05,16,21,25,26,29,31,,,,,,2.0,1.1,1.7*23
$GNGSA,A,3,70,71,79,87,88,,,,,,,,2.0,1.1,1.7*28
$QZGSA,A,3,,,,,,,,,,,,,2.0,1.1,1.7*2A
$IMGSA,A,3,,,,,,,,,,,,,2.0,1.1,1.7*25
$BDGSA,A,3,226,229,230,,,,,,,,,,2.0,1.1,1.7*19
$GAGSA,A,3,102,115,127,130,136,,,,,,,,2.0,1.1,1.7*13
$GPRMC,154528.00,A,4723.877813,N,00822.578372,E,000.0,,270320,,,A*7F
$GPGGA,154529.00,4723.877813,N,00822.578372,E,1,22,0.6,544.7,M,48.0,M,,*6E
$PGLOR,9,STA,154529.00,-0.020,0.000,-103,1,6,0,P,F,L,0,C,3,S,00100002,28,5,R,000833F4,TPEF,30,68702,LC,,,*73
$GPGSV,3,1,10,21,57,175,43,29,57,057,35,31,50,236,34,26,50,301,34*71
$GPGSV,3,2,10,25,29,122,33,16,21,300,32,05,16,055,38,04,06,315,*7E
$GPGSV,3,3,10,09,00,345,,20,00,161,*77
$GLGSV,2,1,08,88,66,242,26,87,61,032,30,77,45,159,19,79,21,325,36*6C
$GLGSV,2,2,08,81,19,229,14,71,08,040,39,70,06,354,25,86,02,043,*6F
$BDGSV,2,1,07,229,76,246,40,230,45,058,30,213,29,043,22,226,24,314,37*60
$BDGSV,2,2,07,205,19,120,,208,07,032,,202,02,100,*6C
$GAGSV,2,1,06,130,78,169,31,127,42,307,36,115,40,211,29,136,28,048,27*60
$GAGSV,2,2,06,102,27,138,31,119,00,326,*6E
$GPGSA,A,3,05,16,21,25,26,29,31,,,,,,2.0,1.1,1.7*3D
$GNGSA,A,3,05,16,21,25,26,29,31,,,,,,2.0,1.1,1.7*23
$GNGSA,A,3,70,71,79,87,88,,,,,,,,2.0,1.1,1.7*28
$QZGSA,A,3,,,,,,,,,,,,,2.0,1.1,1.7*2A
$IMGSA,A,3,,,,,,,,,,,,,2.0,1.1,1.7*25
$BDGSA,A,3,213,226,229,230,,,,,,,,,2.0,1.1,1.7*29
$GAGSA,A,3,102,115,127,130,136,,,,,,,,2.0,1.1,1.7*13
$GPRMC,154529.00,A,4723.877813,N,00822.578372,E,000.0,,270320,,,A*7E
$GPGGA,154530.00,4723.877813,N,00822.578372,E,1,23,0.6,544.7,M,48.0,M,,*67
$PGLOR,9,STA,154530.00,-0.020,0.000,-103,1,6,0,P,F,L,0,C,3,S,00100002,28,5,R,000833F4,TPEF,30,69702,LC,,,*7A
$GPGSV,3,1,10,21,57,175,43,29,57,057,34,31,50,236,34,26,50,301,35*71
$GPGSV,3,2,10,25,29,122,33,16,21,300,31,05,16,055,38,04,06,315,*7D
$GPGSV,3,3,10,09,00,345,,20,00,161,*77
$GLGSV,2,1,08,88,66,242,26,87,61,032,30,77,45,159,19,79,21,325,36*6C
$GLGSV,2,2,08,81,19,229,14,71,08,040,40,70,06,354,25,86,02,043,*61
$BDGSV,2,1,07,229,76,246,39,230,45,058,31,213,29,043,24,226,24,314,36*68
$BDGSV,2,2,07,205,19,120,26,208,07,032,23,202,02,100,*69
$GAGSV,2,1,06,130,78,169,31,127,42,307,37,115,40,211,28,136,28,048,27*60
$GAGSV,2,2,06,102,27,138,31,119,00,326,*6E
$GPGSA,A,3,05,16,21,25,26,29,31,,,,,,1.9,1.0,1.6*37
$GNGSA,A,3,05,16,21,25,26,29,31,,,,,,1.9,1.0,1.6*29
$GNGSA,A,3,70,71,79,87,88,,,,,,,,1.9,1.0,1.6*22
$QZGSA,A,3,,,,,,,,,,,,,1.9,1.0,1.6*20
$IMGSA,A,3,,,,,,,,,,,,,1.9,1.0,1.6*2F
$BDGSA,A,3,205,208,213,226,229,230,,,,,,,1.9,1.0,1.6*2E
$GAGSA,A,3,102,115,127,130,136,,,,,,,,1.9,1.0,1.6*19
$GPRMC,154530.00,A,4723.877813,N,00822.578372,E,000.0,,270320,,,A*76
$GPGGA,154531.00,4723.877813,N,00822.578372,E,1,23,0.6,544.7,M,48.0,M,,*66
$PGLOR,9,STA,154531.00,-0.020,0.000,-103,1,6,0,P,F,L,0,C,3,S,00100002,28,5,R,000833F4,TPEF,30,70702,LC,,,*73
$GPGSV,3,1,10,21,57,175,43,29,57,057,34,31,50,236,33,26,50,301,37*74
$GPGSV,3,2,10,25,29,122,33,16,21,300,30,05,16,055,37,04,06,315,18*7A
$GPGSV,3,3,10,09,00,345,,20,00,161,*77
$GLGSV,2,1,08,88,66,242,25,87,61,032,30,77,45,159,18,79,21,325,36*6E
$GLGSV,2,2,08,81,19,229,14,71,08,040,39,70,06,354,25,86,02,043,*6F
$BDGSV,2,1,07,229,76,246,39,230,45,058,31,213,29,043,24,226,24,314,36*68
$BDGSV,2,2,07,205,19,120,,208,07,032,23,202,02,100,*6D
$GAGSV,2,1,06,130,78,169,31,127,42,307,37,115,40,211,28,136,28,048,29*6E
$GAGSV,2,2,06,102,27,138,33,119,00,326,*6C
$GPGSA,A,3,04,05,16,21,25,26,29,31,,,,,1.9,1.0,1.6*33
$GNGSA,A,3,04,05,16,21,25,26,29,31,,,,,1.9,1.0,1.6*2D
$GNGSA,A,3,70,71,79,87,88,,,,,,,,1.9,1.0,1.6*22
$QZGSA,A,3,,,,,,,,,,,,,1.9,1.0,1.6*20
$IMGSA,A,3,,,,,,,,,,,,,1.9,1.0,1.6*2F
$BDGSA,A,3,208,213,226,229,230,,,,,,,,1.9,1.0,1.6*19
$GAGSA,A,3,102,115,127,130,136,,,,,,,,1.9,1.0,1.6*19
$GPRMC,154531.00,A,4723.877813,N,00822.578372,E,000.0,,270320,,,A*77
$GPGGA,154532.00,4723.877813,N,00822.578372,E,1,24,0.4,544.7,M,48.0,M,,*60
$PGLOR,9,STA,154532.00,-0.020,0.000,-102,1,4,0,P,F,L,0,C,3,S,00100002,28,5,R,000833F4,TPEF,30,71702,LC,,,*72
$GPGSV,3,1,10,21,57,175,42,29,57,057,34,31,50,236,33,26,50,301,36*74
$GPGSV,3,2,10,25,29,122,33,16,21,300,30,05,16,055,37,04,06,315,*73
$GPGSV,3,3,10,09,00,345,,20,00,161,*77
$GLGSV,2,1,08,88,66,242,25,87,61,032,29,77,45,159,18,79,21,325,36*66
$GLGSV,2,2,08,81,19,229,14,71,08,040,39,70,06,354,24,86,02,044,*69
$BDGSV,2,1,07,229,76,246,39,230,45,058,32,213,29,043,28,226,24,314,35*64
$BDGSV,2,2,07,205,19,120,,208,07,032,22,202,02,100,*6C
$GAGSV,2,1,06,130,78,169,31,127,42,307,37,115,40,211,27,136,28,048,29*61
$GAGSV,2,2,06,102,27,138,32,119,00,326,*6D
$GPGSA,A,3,05,16,21,25,26,29,31,,,,,,1.9,1.0,1.7*36
$GNGSA,A,3,05,16,21,25,26,29,31,,,,,,1.9,1.0,1.7*28
$GNGSA,A,3,70,71,79,87,88,,,,,,,,1.9,1.0,1.7*23
$QZGSA,A,3,,,,,,,,,,,,,1.9,1.0,1.7*21
$IMGSA,A,3,,,,,,,,,,,,,1.9,1.0,1.7*2E
$BDGSA,A,3,208,213,226,229,230,,,,,,,,1.9,1.0,1.7*18
$GAGSA,A,3,102,115,127,130,136,,,,,,,,1.9,1.0,1.7*18
$GPRMC,154532.00,A,4723.877813,N,00822.578372,E,000.0,,270320,,,A*74
$GPGGA,154533.00,4723.877813,N,00822.578372,E,1,23,0.4,544.7,M,48.0,M,,*66
$PGLOR,9,STA,154533.00,-0.020,0.000,-102,1,4,0,P,F,L,0,C,3,S,00100002,28,5,R,000833F4,TPEF,30,72702,LC,,,*70
$GPGSV,3,1,10,21,57,175,42,29,57,057,34,31,50,236,32,26,50,301,36*75
$GPGSV,3,2,10,25,29,122,33,16,21,300,30,05,16,055,36,04,06,315,*72
$GPGSV,3,3,10,09,00,345,,20,00,161,*77
$GLGSV,2,1,08,88,66,242,27,87,61,032,29,77,45,159,18,79,21,325,39*6B
$GLGSV,2,2,08,81,19,229,14,71,08,040,38,70,06,354,24,86,02,044,*68
$BDGSV,2,1,07,229,76,246,39,230,45,058,32,213,29,043,30,226,24,314,35*6D
$BDGSV,2,2,07,205,19,120,,208,07,032,28,202,02,100,*66
$GAGSV,2,1,06,130,78,169,31,127,42,307,37,115,40,211,26,136,28,048,29*60
$GAGSV,2,2,06,102,27,138,32,119,00,326,*6D
$GPGSA,A,3,05,16,21,25,26,29,31,,,,,,1.9,1.0,1.6*37
$GNGSA,A,3,05,16,21,25,26,29,31,,,,,,1.9,1.0,1.6*29
$GNGSA,A,3,70,71,79,87,88,,,,,,,,1.9,1.0,1.6*22
$QZGSA,A,3,,,,,,,,,,,,,1.9,1.0,1.6*20
$IMGSA,A,3,,,,,,,,,,,,,1.9,1.0,1.6*2F
$BDGSA,A,3,208,213,226,229,230,,,,,,,,1.9,1.0,1.6*19
$GAGSA,A,3,102,115,127,130,136,,,,,,,,1.9,1.0,1.6*19
$GPRMC,154533.00,A,4723.877813,N,00822.578372,E,000.0,,270320,,,A*75
$GPGGA,154534.00,4723.877813,N,00822.578372,E,1,24,0.4,544.7,M,48.0,M,,*66
$PGLOR,9,STA,154534.00,-0.020,0.000,-102,1,4,0,P,F,L,0,C,3,S,00100002,28,5,R,000833F4,TPEF,30,73702,LC,,,*76
$GPGSV,3,1,10,21,57,175,44,29,57,057,34,31,50,236,32,26,50,301,37*72
$GPGSV,3,2,10,25,29,122,35,16,21,300,30,05,16,055,36,04,06,315,*74
$GPGSV,3,3,10,09,00,345,,20,00,161,*77
$GLGSV,2,1,08,88,66,242,28,87,61,032,38,77,45,159,18,79,21,325,41*6B
$GLGSV,2,2,08,81,19,229,15,71,08,040,38,70,06,354,24,86,02,044,*69
$BDGSV,2,1,07,229,76,246,38,230,45,058,32,213,29,043,30,226,24,314,34*6D
$BDGSV,2,2,07,205,19,120,,208,07,032,27,202,02,100,*69
$GAGSV,2,1,06,130,78,169,31,127,42,307,37,115,40,211,26,136,28,048,35*6D
$GAGSV,2,2,06,102,27,138,32,119,00,326,*6D
$GPGSA,A,3,05,16,21,25,26,29,31,,,,,,1.9,1.0,1.6*37
$GNGSA,A,3,05,16,21,25,26,29,31,,,,,,1.9,1.0,1.6*29
$GNGSA,A,3,70,71,77,79,87,88,,,,,,,1.9,1.0,1.6*22
$QZGSA,A,3,,,,,,,,,,,,,1.9,1.0,1.6*20
$IMGSA,A,3,,,,,,,,,,,,,1.9,1.0,1.6*2F
$BDGSA,A,3,213,226,229,230,,,,,,,,,1.9,1.0,1.6*23
$GAGSA,A,3,102,115,127,130,136,,,,,,,,1.9,1.0,1.6*19
$GPRMC,154534.00,A,4723.877813,N,00822.578372,E,000.0,,270320,,,A*72
$GPGGA,154535.00,4723.877813,N,00822.578372,E,1,23,0.4,544.7,M,48.0,M,,*60
$PGLOR,9,STA,154535.00,-0.020,0.000,-102,1,4,0,P,F,L,0,C,3,S,00100002,28,5,R,000833F4,TPEF,30,74702,LC,,,*70
$GPGSV,3,1,10,21,57,175,43,29,57,057,38,31,50,236,32,26,50,301,41*78
$GPGSV,3,2,10,25,29,122,35,16,21,300,36,05,16,055,36,04,06,315,*72
$GPGSV,3,3,10,09,00,345,,20,00,161,*77
$GLGSV,2,1,08,88,66,242,32,87,61,032,41,77,45,159,22,79,21,325,41*67
$GLGSV,2,2,08,81,19,229,17,71,08,040,37,70,06,354,28,86,02,044,*68
$BDGSV,2,1,07,229,77,246,38,230,45,058,33,213,29,043,29,226,24,314,34*65
$BDGSV,2,2,07,205,19,120,,208,07,032,25,202,02,100,*6B
$GAGSV,2,1,06,130,78,169,31,127,42,307,36,115,40,211,25,136,28,048,35*6F
$GAGSV,2,2,06,102,27,138,33,119,00,326,*6C
$GPGSA,A,3,05,16,21,25,26,29,31,,,,,,2.0,1.0,1.7*3C
$GNGSA,A,3,05,16,21,25,26,29,31,,,,,,2.0,1.0,1.7*22
$GNGSA,A,3,70,71,77,79,87,88,,,,,,,2.0,1.0,1.7*29
$QZGSA,A,3,,,,,,,,,,,,,2.0,1.0,1.7*2B
$IMGSA,A,3,,,,,,,,,,,,,2.0,1.0,1.7*24
$BDGSA,A,3,213,226,229,230,,,,,,,,,2.0,1.0,1.7*28
$GAGSA,A,3,102,115,127,130,136,,,,,,,,2.0,1.0,1.7*12
$GPRMC,154535.00,A,4723.877813,N,00822.578372,E,000.0,,270320,,,A*73
$GPGGA,154536.00,4723.879299,N,00822.581937,E,1,26,0.4,544.7,M,48.0,M,,*6D
$PGLOR,9,STA,154536.00,-0.020,0.000,-103,1,4,0,P,F,L,0,C,3,S,00100002,34,5,R,000833F4,TPEF,30,75702,LC,,,*7E
$GPGSV,3,1,10,21,57,175,43,29,57,057,38,31,50,236,32,26,50,301,41*78
$GPGSV,3,2,10,25,29,122,35,16,21,300,40,05,16,055,37,04,06,315,16*75
$GPGSV,3,3,10,09,00,345,,20,00,161,*77
$GLGSV,2,1,08,88,66,242,32,87,61,032,40,77,45,159,22,79,21,325,40*67
$GLGSV,2,2,08,81,19,229,17,71,08,040,37,70,06,354,33,86,02,044,*62
$BDGSV,2,1,07,229,77,246,38,230,45,058,33,213,29,043,30,226,24,314,38*61
$BDGSV,2,2,07,205,19,120,20,208,07,032,25,202,02,100,*69
$GAGSV,2,1,06,130,78,169,31,127,42,307,36,115,40,211,25,136,28,048,35*6F
$GAGSV,2,2,06,102,27,138,33,119,00,326,*6C
$GPGSA,A,3,05,16,21,25,26,29,31,,,,,,1.8,1.0,1.6*36
$GNGSA,A,3,05,16,21,25,26,29,31,,,,,,1.8,1.0,1.6*28
$GNGSA,A,3,70,71,77,79,81,87,88,,,,,,1.8,1.0,1.6*2A
$QZGSA,A,3,,,,,,,,,,,,,1.8,1.0,1.6*21
$IMGSA,A,3,,,,,,,,,,,,,1.8,1.0,1.6*2E
$BDGSA,A,3,208,213,226,229,230,,,,,,,,1.8,1.0,1.6*18
$GAGSA,A,3,102,115,127,130,136,,,,,,,,1.8,1.0,1.6*18
$GPRMC,154536.00,A,4723.879299,N,00822.581937,E,001.5,132.1,270320,,,A*50
$GPGGA,154537.00,4723.878811,N,00822.583195,E,1,26,0.4,544.7,M,48.0,M,,*65
$PGLOR,9,STA,154537.00,-0.020,0.000,-103,1,4,0,P,F,L,0,C,3,S,00100002,36,5,R,000833F4,TPEF,30,76702,LC,,,*7E
$GPGSV,3,1,10,21,57,175,42,29,57,057,37,31,50,236,34,26,50,301,41*70
$GPGSV,3,2,10,25,29,122,35,16,21,300,39,05,16,055,37,04,06,315,16*7B
$GPGSV,3,3,10,09,00,345,,20,00,161,*77
$GLGSV,2,1,08,88,66,242,34,87,61,032,40,77,45,159,24,79,21,325,40*67
$GLGSV,2,2,08,81,19,229,17,71,08,040,38,70,06,354,33,86,02,044,*6D
$BDGSV,2,1,07,229,77,246,38,230,45,058,35,213,29,043,33,226,24,314,38*64
$BDGSV,2,2,07,205,19,120,27,208,07,032,35,202,02,100,*6F
$GAGSV,2,1,06,130,78,169,33,127,42,307,36,115,40,211,30,136,28,048,36*6A
$GAGSV,2,2,06,102,27,138,34,119,00,326,*6B
$GPGSA,A,3,05,16,21,25,26,29,31,,,,,,1.8,1.0,1.6*36
$GNGSA,A,3,05,16,21,25,26,29,31,,,,,,1.8,1.0,1.6*28
$GNGSA,A,3,70,71,77,79,87,88,,,,,,,1.8,1.0,1.6*23
$QZGSA,A,3,,,,,,,,,,,,,1.8,1.0,1.6*21
$IMGSA,A,3,,,,,,,,,,,,,1.8,1.0,1.6*2E
$BDGSA,A,3,205,208,213,226,229,230,,,,,,,1.8,1.0,1.6*2F
$GAGSA,A,3,102,115,127,130,136,,,,,,,,1.8,1.0,1.6*18
$GPRMC,154537.00,A,4723.878811,N,00822.583195,E,002.9,162.0,270320,,,A*53
$GPGGA,154538.00,4723.877317,N,00822.583876,E,1,26,0.4,544.7,M,48.0,M,,*6C
$PGLOR,9,STA,154538.00,-0.020,0.000,-102,1,4,0,P,F,L,0,C,3,S,00100002,37,5,R,000833F4,TPEF,30,77702,LC,,,*70
$GPGSV,3,1,10,21,57,175,42,29,57,057,37,31,50,236,38,26,50,301,42*7F
$GPGSV,3,2,10,25,29,122,35,16,21,300,39,05,16,055,38,04,06,315,24*75
$GPGSV,3,3,10,09,00,345,,20,00,161,*77
$GLGSV,2,1,08,88,66,242,35,87,61,032,40,77,45,159,24,79,21,325,40*66
$GLGSV,2,2,08,81,19,229,30,71,08,040,44,70,06,354,33,86,02,044,*63
$BDGSV,2,1,07,229,77,246,37,230,45,058,35,213,29,043,33,226,24,314,37*64
$BDGSV,2,2,07,205,19,120,,208,07,032,34,202,02,100,*6B
$GAGSV,2,1,06,130,78,169,35,127,42,307,36,115,40,211,34,136,28,048,36*68
$GAGSV,2,2,06,102,27,138,35,119,00,326,*6A
$GPGSA,A,3,04,05,16,21,25,26,29,31,,,,,2.1,1.0,1.9*37
$GNGSA,A,3,04,05,16,21,25,26,29,31,,,,,2.1,1.0,1.9*29
$GNGSA,A,3,70,71,77,79,81,87,88,,,,,,2.1,1.0,1.9*2F
$QZGSA,A,3,,,,,,,,,,,,,2.1,1.0,1.9*24
$IMGSA,A,3,,,,,,,,,,,,,2.1,1.0,1.9*2B
$BDGSA,A,3,208,213,226,229,230,,,,,,,,2.1,1.0,1.9*1D
$GAGSA,A,3,102,115,127,130,136,,,,,,,,2.1,1.0,1.9*1D
$GPRMC,154538.00,A,4723.877317,N,00822.583876,E,005.0,155.6,270320,,,A*56
$GPGGA,154539.00,4723.875235,N,00822.585187,E,1,26,0.4,544.9,M,48.0,M,,*61
$PGLOR,9,STA,154539.00,-0.020,0.000,-102,1,4,0,P,F,L,0,C,3,S,00100002,40,5,R,000833F4,TPEF,30,78702,LC,,,*7E
$GPGSV,3,1,10,21,57,175,41,29,57,057,36,31,50,236,39,26,50,301,42*7C
$GPGSV,3,2,10,25,29,122,34,16,21,300,39,05,16,055,41,04,06,315,*7C
$GPGSV,3,3,10,09,00,345,,20,00,161,*77
$GLGSV,2,1,08,88,66,242,35,87,61,032,40,77,45,159,24,79,21,325,39*68
$GLGSV,2,2,08,81,19,229,31,71,08,040,44,70,06,354,34,86,02,044,*65
$BDGSV,2,1,07,229,77,246,37,230,45,058,36,213,29,043,32,226,24,314,37*66
$BDGSV,2,2,07,205,19,120,,208,07,032,34,202,02,100,*6B
$GAGSV,2,1,06,130,78,169,38,127,42,307,36,115,40,211,34,136,28,048,36*65
$GAGSV,2,2,06,102,27,138,34,119,00,326,*6B
$GPGSA,A,3,05,16,21,25,26,29,31,,,,,,2.1,0.9,1.9*3B
$GNGSA,A,3,05,16,21,25,26,29,31,,,,,,2.1,0.9,1.9*25
$GNGSA,A,3,70,71,77,79,81,87,88,,,,,,2.1,0.9,1.9*27
$QZGSA,A,3,,,,,,,,,,,,,2.1,0.9,1.9*2C
$IMGSA,A,3,,,,,,,,,,,,,2.1,0.9,1.9*23
$BDGSA,A,3,208,213,226,229,230,,,,,,,,2.1,0.9,1.9*15
$GAGSA,A,3,102,115,127,130,136,,,,,,,,2.1,0.9,1.9*15
$GPRMC,154539.00,A,4723.875235,N,00822.585187,E,007.3,151.6,270320,,,A*50
$GPGGA,154540.00,4723.872580,N,00822.587253,E,1,28,0.4,545.1,M,48.0,M,,*6E
$PGLOR,9,STA,154540.00,-0.020,0.000,-103,1,4,0,P,F,L,0,C,3,S,00100002,46,5,R,000833F4,TPEF,30,79702,LC,,,*76
$GPGSV,3,1,10,21,57,175,40,29,57,057,35,31,50,236,39,26,50,301,42*7E
$GPGSV,3,2,10,25,29,122,34,16,21,300,38,05,16,055,41,04,06,315,*7D
$GPGSV,3,3,10,09,00,345,,20,00,161,*77
$GLGSV,2,1,08,88,66,242,35,87,61,032,39,77,45,159,24,79,21,325,38*67
$GLGSV,2,2,08,81,19,229,30,71,08,040,44,70,06,354,34,86,02,044,*64
$BDGSV,2,1,07,229,77,246,37,230,45,058,36,213,29,043,33,226,24,314,37*67
$BDGSV,2,2,07,205,19,120,24,208,07,032,33,202,02,100,*6A
$GAGSV,2,1,06,130,78,169,37,127,42,307,37,115,40,211,35,136,28,048,36*6A
$GAGSV,2,2,06,102,27,138,34,119,00,326,*6B
$GPGSA,A,3,05,16,21,25,26,29,31,,,,,,2.2,1.0,2.0*3A
$GNGSA,A,3,05,16,21,25,26,29,31,,,,,,2.2,1.0,2.0*24
$GNGSA,A,3,70,71,77,79,81,87,88,,,,,,2.2,1.0,2.0*26
$QZGSA,A,3,,,,,,,,,,,,,2.2,1.0,2.0*2D
$IMGSA,A,3,,,,,,,,,,,,,2.2,1.0,2.0*22
$BDGSA,A,3,205,208,213,226,229,230,,,,,,,2.2,1.0,2.0*23
$GAGSA,A,3,102,115,127,130,136,,,,,,,,2.2,1.0,2.0*14
$GPRMC,154540.00,A,4723.872580,N,00822.587253,E,009.1,148.2,270320,,,A*58
$GPGGA,154541.00,4723.869769,N,00822.589687,E,1,26,0.4,545.3,M,48.0,M,,*6F
$PGLOR,9,STA,154541.00,-0.020,0.000,-103,1,4,0,P,F,L,0,C,3,S,00100002,52,5,R,000833F4,TPEF,30,80702,LC,,,*74
$GPGSV,3,1,10,21,57,175,39,29,57,057,35,31,50,236,41,26,50,301,41*7C
$GPGSV,3,2,10,25,29,122,37,16,21,300,38,05,16,055,40,04,06,315,*7F
$GPGSV,3,3,10,09,00,345,,20,00,161,*77
$GLGSV,2,1,08,88,66,242,35,87,61,032,39,77,45,159,24,79,21,325,42*6A
$GLGSV,2,2,08,81,19,229,41,71,08,040,43,70,06,354,34,86,02,044,*65
$BDGSV,2,1,07,229,77,246,37,230,45,058,36,213,29,043,33,226,24,314,36*66
$BDGSV,2,2,07,205,19,120,,208,07,032,33,202,02,100,*6C
$GAGSV,2,1,06,130,78,169,37,127,42,307,38,115,40,211,35,136,28,048,35*66
$GAGSV,2,2,06,102,27,138,33,119,00,326,*6C
$GPGSA,A,3,05,16,21,25,26,29,31,,,,,,2.2,1.0,2.0*3A
$GNGSA,A,3,05,16,21,25,26,29,31,,,,,,2.2,1.0,2.0*24
$GNGSA,A,3,70,71,77,79,81,87,88,,,,,,2.2,1.0,2.0*26
$QZGSA,A,3,,,,,,,,,,,,,2.2,1.0,2.0*2D
$IMGSA,A,3,,,,,,,,,,,,,2.2,1.0,2.0*22
$BDGSA,A,3,208,213,226,229,230,,,,,,,,2.2,1.0,2.0*14
$GAGSA,A,3,102,115,127,130,136,,,,,,,,2.2,1.0,2.0*14
$GPRMC,154541.00,A,4723.869769,N,00822.589687,E,010.1,147.5,270320,,,A*55
$GPGGA,154542.00,4723.867027,N,00822.592305,E,1,26,0.4,545.3,M,48.0,M,,*6A
$PGLOR,9,STA,154542.00,-0.020,0.000,-102,1,4,0,P,F,L,0,C,3,S,00100002,58,5,R,000833F4,TPEF,30,81702,LC,,,*7D
$GPGSV,3,1,10,21,57,175,39,29,57,057,34,31,50,236,41,26,50,301,41*7D
$GPGSV,3,2,10,25,29,122,36,16,21,300,40,05,16,055,40,04,06,315,*71
$GPGSV,3,3,10,09,00,345,,20,00,161,*77
$GLGSV,2,1,08,88,66,242,35,87,61,032,38,77,45,159,25,79,21,325,42*6A
$GLGSV,2,2,08,81,19,229,40,71,08,040,43,70,06,354,33,86,02,044,*63
$BDGSV,2,1,07,229,77,246,37,230,45,058,35,213,29,043,32,226,24,314,38*6A
$BDGSV,2,2,07,205,19,120,,208,07,032,32,202,02,100,*6D
$GAGSV,2,1,06,130,78,169,37,127,42,307,37,115,40,211,34,136,28,048,35*68
$GAGSV,2,2,06,102,27,138,33,119,00,326,*6C
$GPGSA,A,3,05,16,21,25,26,29,31,,,,,,2.0,0.9,1.8*3B
$GNGSA,A,3,05,16,21,25,26,29,31,,,,,,2.0,0.9,1.8*25
$GNGSA,A,3,70,71,77,79,81,87,88,,,,,,2.0,0.9,1.8*27
$QZGSA,A,3,,,,,,,,,,,,,2.0,0.9,1.8*2C
$IMGSA,A,3,,,,,,,,,,,,,2.0,0.9,1.8*23
$BDGSA,A,3,208,213,226,229,230,,,,,,,,2.0,0.9,1.8*15
$GAGSA,A,3,102,115,127,130,136,,,,,,,,2.0,0.9,1.8*15
$GPRMC,154542.00,A,4723.867027,N,00822.592305,E,011.1,145.8,270320,,,A*5E
$GPGGA,154543.00,4723.864018,N,00822.595323,E,1,25,0.3,545.4,M,48.0,M,,*64
$PGLOR,9,STA,154543.00,-0.020,0.000,-102,1,3,0,P,F,L,0,C,3,S,00100182,65,5,R,000833F4,TPEF,30,82702,LC,,,*7F
$GPGSV,3,1,10,21,57,175,40,29,57,057,34,31,50,236,41,26,50,301,40*72
$GPGSV,3,2,10,25,29,122,36,16,21,300,41,05,16,055,39,04,06,315,*7E
$GPGSV,3,3,10,09,00,345,,20,00,161,*77
$GLGSV,2,1,08,88,66,242,35,87,61,032,38,77,45,159,26,79,21,325,42*69
$GLGSV,2,2,08,81,19,229,40,71,08,040,43,70,06,354,32,86,02,044,*62
$BDGSV,2,1,07,229,77,246,36,230,45,058,35,213,29,043,32,226,24,314,40*64
$BDGSV,2,2,07,205,19,120,,208,07,032,32,202,02,100,*6D
$GAGSV,2,1,06,130,78,169,37,127,43,307,37,115,40,211,34,136,28,048,35*69
$GAGSV,2,2,06,102,27,138,34,119,00,326,*6B
$GPGSA,A,3,05,16,21,25,26,29,31,,,,,,2.0,0.9,1.8*3B
$GNGSA,A,3,05,16,21,25,26,29,31,,,,,,2.0,0.9,1.8*25
$GNGSA,A,3,70,71,77,79,81,87,88,,,,,,2.0,0.9,1.8*27
$QZGSA,A,3,,,,,,,,,,,,,2.0,0.9,1.8*2C
$IMGSA,A,3,,,,,,,,,,,,,2.0,0.9,1.8*23
$BDGSA,A,3,208,213,226,229,230,,,,,,,,2.0,0.9,1.8*15
$GAGSA,A,3,102,115,127,130,136,,,,,,,,2.0,0.9,1.8*15
$GPRMC,154543.00,A,4723.864018,N,00822.595323,E,012.1,146.3,270320,,,A*58
$GPGGA,154544.00,4723.860938,N,00822.598604,E,1,26,0.3,545.4,M,48.0,M,,*62
$PGLOR,9,STA,154544.00,-0.020,0.000,-102,1,3,0,P,F,L,0,C,3,S,00100182,72,5,R,000833F4,TPEF,30,83702,LC,,,*7F
$GPGSV,3,1,10,21,57,175,40,29,57,057,34,31,50,236,41,26,50,301,40*72
$GPGSV,3,2,10,25,29,122,36,16,21,300,41,05,16,055,39,04,06,315,*7E
$GPGSV,3,3,10,09,00,345,,20,00,161,*77
$GLGSV,2,1,08,88,66,242,35,87,61,032,38,77,45,159,26,79,21,325,43*68
$GLGSV,2,2,08,81,19,229,39,71,08,040,42,70,06,354,31,86,02,044,*6E
$BDGSV,2,1,07,229,77,246,36,230,45,058,34,213,29,043,32,226,24,314,40*65
$BDGSV,2,2,07,205,19,120,27,208,07,032,31,202,02,100,*6B
$GAGSV,2,1,06,130,78,169,38,127,43,307,37,115,40,211,34,136,28,048,34*67
$GAGSV,2,2,06,102,27,138,34,119,00,326,*6B
$GPGSA,A,3,05,16,21,25,26,29,31,,,,,,1.7,0.9,1.4*33
$GNGSA,A,3,05,16,21,25,26,29,31,,,,,,1.7,0.9,1.4*2D
$GNGSA,A,3,70,71,77,79,81,87,88,,,,,,1.7,0.9,1.4*2F
$QZGSA,A,3,,,,,,,,,,,,,1.7,0.9,1.4*24
$IMGSA,A,3,,,,,,,,,,,,,1.7,0.9,1.4*2B
$BDGSA,A,3,205,208,213,226,229,230,,,,,,,1.7,0.9,1.4*2A
$GAGSA,A,3,102,115,127,130,136,,,,,,,,1.7,0.9,1.4*1D
$GPRMC,154544.00,A,4723.860938,N,00822.598604,E,013.0,149.1,270320,,,A*50
$GPGGA,154545.00,4723.857497,N,00822.601723,E,1,26,0.3,545.4,M,48.0,M,,*68
$PGLOR,9,STA,154545.00,-0.020,0.000,-102,1,3,0,P,F,L,0,C,3,S,00100182,79,5,R,000833F4,TPEF,30,84702,LC,,,*72
$GPGSV,3,1,10,21,57,175,39,29,57,057,35,31,50,236,42,26,50,301,40*7E
$GPGSV,3,2,10,25,29,122,36,16,21,300,41,05,16,055,41,04,06,315,20*73
$GPGSV,3,3,10,09,00,345,,20,00,161,*77
$GLGSV,2,1,08,88,66,242,36,87,61,032,38,77,45,159,26,79,21,325,43*6B
$GLGSV,2,2,08,81,19,229,38,71,08,040,42,70,06,354,30,86,02,044,*6E
$BDGSV,2,1,07,229,77,246,36,230,45,058,34,213,29,043,32,226,24,314,40*65
$BDGSV,2,2,07,205,19,120,,208,07,032,,202,02,100,*6C
$GAGSV,2,1,06,130,78,169,38,127,43,307,36,115,40,211,33,136,28,048,35*60
$GAGSV,2,2,06,102,27,138,34,119,00,326,*6B
$GPGSA,A,3,04,05,16,21,25,26,29,31,,,,,1.8,1.0,1.5*31
$GNGSA,A,3,04,05,16,21,25,26,29,31,,,,,1.8,1.0,1.5*2F
$GNGSA,A,3,70,71,77,79,81,87,88,,,,,,1.8,1.0,1.5*29
$QZGSA,A,3,,,,,,,,,,,,,1.8,1.0,1.5*22
$IMGSA,A,3,,,,,,,,,,,,,1.8,1.0,1.5*2D
$BDGSA,A,3,213,226,229,230,,,,,,,,,1.8,1.0,1.5*21
$GAGSA,A,3,102,115,127,130,136,,,,,,,,1.8,1.0,1.5*1B
$GPRMC,154545.00,A,4723.857497,N,00822.601723,E,013.7,153.3,270320,,,A*54
$GPGGA,154546.00,4723.853940,N,00822.604403,E,1,24,0.3,545.3,M,48.0,M,,*69
$PGLOR,9,STA,154546.00,-0.020,0.000,-102,1,3,0,P,F,L,0,C,3,S,00100182,87,5,R,000833F4,TPEF,30,85702,LC,,,*71
$GPGSV,3,1,10,21,57,175,39,29,57,057,35,31,50,236,41,26,50,301,39*73
$GPGSV,3,2,10,25,29,122,36,16,21,301,41,05,16,055,42,04,06,315,*73
$GPGSV,3,3,10,09,00,345,,20,00,161,*77
$GLGSV,2,1,08,88,66,242,37,87,61,032,39,77,45,159,25,79,21,325,42*69
$GLGSV,2,2,08,81,19,229,37,71,08,040,43,70,06,354,29,86,02,044,*68
$BDGSV,2,1,07,229,77,246,35,230,45,058,34,213,29,043,32,226,24,314,39*68
$BDGSV,2,2,07,205,19,120,,208,07,032,30,202,02,100,*6F
$GAGSV,2,1,06,130,78,169,39,127,43,307,36,115,40,211,33,136,28,048,36*62
$GAGSV,2,2,06,102,27,138,34,119,00,326,*6B
$GPGSA,A,3,05,16,21,25,26,29,31,,,,,,2.0,1.0,1.7*3C
$GNGSA,A,3,05,16,21,25,26,29,31,,,,,,2.0,1.0,1.7*22
$GNGSA,A,3,71,77,79,81,87,88,,,,,,,2.0,1.0,1.7*27
$QZGSA,A,3,,,,,,,,,,,,,2.0,1.0,1.7*2B
$IMGSA,A,3,,,,,,,,,,,,,2.0,1.0,1.7*24
$BDGSA,A,3,208,213,226,229,230,,,,,,,,2.0,1.0,1.7*12
$GAGSA,A,3,102,115,127,130,136,,,,,,,,2.0,1.0,1.7*12
$GPRMC,154546.00,A,4723.853940,N,00822.604403,E,014.0,161.7,270320,,,A*55
$GPGGA,154547.00,4723.850193,N,00822.606212,E,1,24,0.3,545.1,M,48.0,M,,*6B
$PGLOR,9,STA,154547.00,-0.020,0.000,-102,1,3,0,P,F,L,0,C,3,S,00100182,94,5,R,000833F4,TPEF,30,86702,LC,,,*71
$GPGSV,3,1,10,21,57,175,39,29,57,057,39,31,50,236,41,26,50,301,40*71
$GPGSV,3,2,10,25,29,122,36,16,21,301,40,05,16,055,46,04,06,315,*76
$GPGSV,3,3,10,09,00,345,,20,00,161,*77
$GLGSV,2,1,08,88,66,242,37,87,61,032,39,77,45,159,25,79,21,325,41*6A
$GLGSV,2,2,08,81,19,229,37,71,08,040,43,70,06,354,27,86,02,044,*66
$BDGSV,2,1,07,229,77,246,35,230,45,058,35,213,29,043,31,226,24,314,39*6A
$BDGSV,2,2,07,205,19,120,23,208,07,032,,202,02,100,*6D
$GAGSV,2,1,06,130,78,169,40,127,43,307,36,115,40,211,33,136,28,048,35*6F
$GAGSV,2,2,06,102,27,138,34,119,00,326,*6B
$GPGSA,A,3,05,16,21,25,26,29,31,,,,,,2.0,0.9,1.8*3B
$GNGSA,A,3,05,16,21,25,26,29,31,,,,,,2.0,0.9,1.8*25
$GNGSA,A,3,71,77,79,81,87,88,,,,,,,2.0,0.9,1.8*20
$QZGSA,A,3,,,,,,,,,,,,,2.0,0.9,1.8*2C
$IMGSA,A,3,,,,,,,,,,,,,2.0,0.9,1.8*23
$BDGSA,A,3,213,226,229,230,,,,,,,,,2.0,0.9,1.8*2F
$GAGSA,A,3,102,115,127,130,136,,,,,,,,2.0,0.9,1.8*15
$GPRMC,154547.00,A,4723.850193,N,00822.606212,E,013.9,170.2,270320,,,A*5E
$GPGGA,154548.00,4723.846340,N,00822.607122,E,1,25,0.3,545.1,M,48.0,M,,*6F
$PGLOR,9,STA,154548.00,-0.020,0.000,-102,1,3,0,P,F,L,0,C,3,S,00100182,101,5,R,000833F4,TPEF,30,87702,LC,,,*42
$GPGSV,3,1,10,21,57,175,39,29,57,057,39,31,50,236,41,26,50,301,39*7F
$GPGSV,3,2,10,25,29,122,36,16,21,301,39,05,16,055,46,04,06,315,*78
$GPGSV,3,3,10,09,00,345,,20,00,161,*77
$GLGSV,2,1,08,88,66,242,36,87,61,032,39,77,45,159,25,79,21,325,41*6B
$GLGSV,2,2,08,81,19,229,36,71,08,040,42,70,06,354,26,86,02,044,*67
$BDGSV,2,1,07,229,77,246,35,230,45,058,35,213,29,043,36,226,24,314,39*6D
$BDGSV,2,2,07,205,19,120,,208,07,032,29,202,02,100,*67
$GAGSV,2,1,06,130,78,169,40,127,43,307,36,115,40,211,33,136,28,048,35*6F
$GAGSV,2,2,06,102,27,138,33,119,00,326,*6C
$GPGSA,A,3,05,16,21,25,26,29,31,,,,,,2.0,0.9,1.8*3B
$GNGSA,A,3,05,16,21,25,26,29,31,,,,,,2.0,0.9,1.8*25
$GNGSA,A,3,71,77,79,81,87,88,,,,,,,2.0,0.9,1.8*20
$QZGSA,A,3,,,,,,,,,,,,,2.0,0.9,1.8*2C
$IMGSA,A,3,,,,,,,,,,,,,2.0,0.9,1.8*23
$BDGSA,A,3,208,213,226,229,230,,,,,,,,2.0,0.9,1.8*15
$GAGSA,A,3,102,115,127,130,136,,,,,,,,2.0,0.9,1.8*15
$GPRMC,154548.00,A,4723.846340,N,00822.607122,E,013.9,176.9,270320,,,A*56
$GPGGA,154549.00,4723.842108,N,00822.607082,E,1,25,0.3,545.1,M,48.0,M,,*6F
$PGLOR,9,STA,154549.00,-0.020,0.000,-102,1,3,0,P,F,L,0,C,3,S,00100182,109,5,R,000833F4,TPEF,30,88702,LC,,,*44
$GPGSV,3,1,10,21,57,175,39,29,57,057,38,31,50,236,41,26,50,301,40*70
$GPGSV,3,2,10,25,29,122,35,16,21,301,38,05,16,055,45,04,06,315,22*79
$GPGSV,3,3,10,09,00,345,,20,00,161,*77
$GLGSV,2,1,08,88,66,242,36,87,61,032,41,77,45,159,24,79,21,325,41*65
$GLGSV,2,2,08,81,19,229,36,71,08,040,42,70,06,354,25,86,02,044,*64
$BDGSV,2,1,07,229,77,246,35,230,45,058,35,213,29,043,37,226,24,314,38*6D
$BDGSV,2,2,07,205,19,120,,208,07,032,29,202,02,100,*67
$GAGSV,2,1,06,130,78,169,40,127,43,307,36,115,40,211,33,136,28,048,35*6F
$GAGSV,2,2,06,102,27,138,36,119,00,326,*69
$GPGSA,A,3,04,05,16,21,25,26,29,31,,,,,1.9,0.9,1.7*3A
$GNGSA,A,3,04,05,16,21,25,26,29,31,,,,,1.9,0.9,1.7*24
$GNGSA,A,3,71,77,79,81,87,88,,,,,,,1.9,0.9,1.7*25
$QZGSA,A,3,,,,,,,,,,,,,1.9,0.9,1.7*29
$IMGSA,A,3,,,,,,,,,,,,,1.9,0.9,1.7*26
$BDGSA,A,3,208,213,226,229,230,,,,,,,,1.9,0.9,1.7*10
$GAGSA,A,3,102,115,127,130,136,,,,,,,,1.9,0.9,1.7*10
$GPRMC,154549.00,A,4723.842108,N,00822.607082,E,013.9,189.2,270320,,,A*5D
$GPGGA,154550.00,4723.838256,N,00822.605908,E,1,24,0.3,545.3,M,48.0,M,,*68
$PGLOR,9,STA,154550.00,-0.020,0.000,-102,1,3,0,P,F,L,0,C,3,S,00100182,116,5,R,000833F4,TPEF,30,89702,LC,,,*43
$GPGSV,3,1,10,21,57,175,38,29,57,057,38,31,50,236,40,26,50,301,40*70
$GPGSV,3,2,10,25,29,122,35,16,21,301,37,05,16,055,45,04,06,315,21*75
$GPGSV,3,3,10,09,00,345,,20,00,161,*77
$GLGSV,2,1,08,88,66,242,35,87,61,032,43,77,45,159,28,79,21,325,40*69
$GLGSV,2,2,08,81,19,229,36,71,08,040,42,70,06,354,25,86,02,044,*64
$BDGSV,2,1,07,229,77,246,34,230,45,058,35,213,29,043,41,226,24,314,37*62
$BDGSV,2,2,07,205,19,120,,208,07,032,28,202,02,100,*66
$GAGSV,2,1,06,130,78,169,40,127,43,307,38,115,40,211,33,136,28,048,35*61
$GAGSV,2,2,06,102,27,138,36,119,00,326,*69
$GPGSA,A,3,05,16,21,25,26,29,31,,,,,,1.8,0.9,1.6*3E
$GNGSA,A,3,05,16,21,25,26,29,31,,,,,,1.8,0.9,1.6*20
$GNGSA,A,3,70,71,77,79,81,87,88,,,,,,1.8,0.9,1.6*22
$QZGSA,A,3,,,,,,,,,,,,,1.8,0.9,1.6*29
$IMGSA,A,3,,,,,,,,,,,,,1.8,0.9,1.6*26
$BDGSA,A,3,213,226,229,230,,,,,,,,,1.8,0.9,1.6*2A
$GAGSA,A,3,102,115,127,130,136,,,,,,,,1.8,0.9,1.6*10
$GPRMC,154550.00,A,4723.838256,N,00822.605908,E,014.1,194.6,270320,,,A*5E
$GPGGA,154551.00,4723.834414,N,00822.604325,E,1,26,0.3,545.5,M,48.0,M,,*65
$PGLOR,9,STA,154551.00,-0.020,0.000,-102,1,3,0,P,F,L,0,C,3,S,00100182,124,5,R,000833F4,TPEF,30,90702,LC,,,*4B
$GPGSV,3,1,10,21,57,175,38,29,57,057,40,31,50,236,40,26,50,301,41*7E
$GPGSV,3,2,10,25,29,122,36,16,21,301,36,05,16,055,44,04,06,315,21*76
$GPGSV,3,3,10,09,00,345,,20,00,161,*77
$GLGSV,2,1,08,88,66,242,34,87,61,032,43,77,45,159,30,79,21,325,42*63
$GLGSV,2,2,08,81,19,229,35,71,08,040,44,70,06,354,25,86,02,044,*61
$BDGSV,2,1,07,229,77,246,37,230,45,058,35,213,29,043,40,226,24,314,37*60
$BDGSV,2,2,07,205,19,120,23,208,07,032,28,202,02,100,*67
$GAGSV,2,1,06,130,78,169,40,127,43,307,38,115,40,211,34,136,28,048,35*66
$GAGSV,2,2,06,102,27,138,35,119,00,326,*6A
$GPGSA,A,3,05,16,21,25,26,29,31,,,,,,1.9,1.0,1.6*37
$GNGSA,A,3,05,16,21,25,26,29,31,,,,,,1.9,1.0,1.6*29
$GNGSA,A,3,70,71,77,79,81,87,88,,,,,,1.9,1.0,1.6*2B
$QZGSA,A,3,,,,,,,,,,,,,1.9,1.0,1.6*20
$IMGSA,A,3,,,,,,,,,,,,,1.9,1.0,1.6*2F
$BDGSA,A,3,205,208,213,226,229,230,,,,,,,1.9,1.0,1.6*2E
$GAGSA,A,3,102,115,127,130,136,,,,,,,,1.9,1.0,1.6*19
$GPRMC,154551.00,A,4723.834414,N,00822.604325,E,014.6,199.1,270320,,,A*5A
$GPGGA,154552.00,4723.830469,N,00822.602250,E,1,26,0.3,545.9,M,48.0,M,,*61
$PGLOR,9,STA,154552.00,-0.020,0.000,-102,1,3,0,P,F,L,0,C,3,S,00100182,131,5,R,000833F4,TPEF,30,91702,LC,,,*4D
$GPGSV,3,1,10,21,57,175,38,29,57,057,42,31,50,236,40,26,50,301,43*7E
$GPGSV,3,2,10,25,29,122,37,16,21,301,35,05,16,055,44,04,06,315,*77
